timestamp,elapsed_seconds,fatigue_score,eye_ratio,mouth_ratio,pitch_deg,yaw_deg,roll_deg,yawn_count,eye_closed_flag,head_down_flag,speed_kmh,acceleration_ms2,throttle_percent,brake_percent,steering_angle_deg,steering_grip,driving_fatigue_level,co2_rate_g_per_km,mode,eco_score,event_type,event_severity,recommendation
2025-11-16 15:49:56.759,0.0,0,0.3,0.3,0,0,0,0,0,0,1.55,1.552,50.4,4.5,-0.99,0.735,0,148.74,mixed,75.0,,,
2025-11-16 15:49:57.759,0.009701967239379883,0,0.3,0.3,0,0,0,0,0,0,6.48,4.925,71.6,12.0,-4.72,0.754,0,127.08,mixed,80.0,,,
2025-11-16 15:49:58.759,0.01789069175720215,0,0.3,0.3,0,0,0,0,0,0,10.71,4.234,53.3,3.3,-5.03,0.609,0,123.28,mixed,80.0,,,
2025-11-16 15:49:59.759,0.030999422073364258,0,0.3,0.3,0,0,0,0,0,0,12.94,2.229,61.8,0.0,6.07,0.648,0,106.72,mixed,95.0,,,
2025-11-16 15:50:00.759,0.04629826545715332,0,0.3,0.3,0,0,0,0,0,0,15.89,2.951,82.3,3.1,15.82,0.754,0,134.03,mixed,72.0,,,
2025-11-16 15:50:01.759,0.06221461296081543,0,0.3,0.3,0,0,0,0,0,0,18.97,3.074,70.5,4.2,24.93,0.532,0,131.73,mixed,80.0,,,
2025-11-16 15:50:02.759,0.07807087898254395,0,0.3,0.3,0,0,0,0,0,0,20.73,1.762,84.2,6.6,25.94,0.738,0,116.56,mixed,87.0,,,
2025-11-16 15:50:03.759,0.09375739097595215,0,0.3,0.3,0,0,0,0,0,0,23.52,2.797,42.1,7.2,25.48,0.802,0,125.04,mixed,80.0,,,
2025-11-16 15:50:04.759,0.10996413230895996,0,0.3,0.3,0,0,0,0,0,0,24.52,0.991,83.8,2.1,27.09,0.637,0,117.96,mixed,87.0,,,
2025-11-16 15:50:05.759,0.12592315673828125,0,0.3,0.3,0,0,0,0,0,0,27.06,2.541,50.9,0.0,13.96,0.862,0,129.08,mixed,80.0,,,
2025-11-16 15:50:06.759,0.14157390594482422,0,0.3,0.3,0,0,0,0,0,0,30.28,3.227,49.7,9.5,18.52,0.793,0,130.03,mixed,80.0,,,
2025-11-16 15:50:07.759,0.1574547290802002,0,0.3,0.3,0,0,0,0,0,0,32.49,2.204,67.8,0.7,28.83,0.854,0,116.32,mixed,95.0,,,
2025-11-16 15:50:08.759,0.16434931755065918,0,0.3,0.3,0,0,0,0,0,0,35.63,3.142,56.5,6.6,40.64,0.738,0,134.21,mixed,80.0,,,
2025-11-16 15:50:09.759,0.16971993446350098,0,0.3,0.3,0,0,0,0,0,0,38.09,2.459,46.9,10.2,33.19,0.58,0,112.31,mixed,95.0,,,
2025-11-16 15:50:10.759,0.18244147300720215,0,0.3,0.3,0,0,0,0,0,0,40.5,2.416,65.4,8.1,27.42,0.691,0,118.81,mixed,95.0,,,
2025-11-16 15:50:11.759,0.19660115242004395,0,0.3,0.3,0,0,0,0,0,0,41.86,1.355,52.3,6.7,24.12,0.893,0,115.44,mixed,95.0,,,
2025-11-16 15:50:12.759,0.2136068344116211,0,0.3,0.3,0,0,0,0,0,0,42.52,0.658,69.0,1.4,18.34,0.699,0,120.7,mixed,95.0,,,
2025-11-16 15:50:13.759,0.22967958450317383,0,0.3,0.3,0,0,0,0,0,0,43.63,1.114,86.0,5.1,27.61,0.799,0,126.25,mixed,87.0,,,
2025-11-16 15:50:14.759,0.245347261428833,0,0.3,0.3,0,0,0,0,0,0,43.64,0.012,76.2,0.0,22.44,0.57,0,123.32,mixed,95.0,,,
2025-11-16 15:50:15.759,0.2613179683685303,0,0.3,0.3,0,0,0,0,0,0,46.92,3.272,38.1,6.5,26.46,0.683,0,133.19,mixed,80.0,,,
2025-11-16 15:50:16.759,0.27733349800109863,0,0.3,0.3,0,0,0,0,0,0,47.59,0.672,59.2,6.3,30.05,0.639,0,119.79,mixed,95.0,,,
2025-11-16 15:50:17.759,0.2997860908508301,0,0.3,0.3,0,0,0,0,0,0,47.29,-0.302,37.5,0.0,39.22,0.777,0,113.17,mixed,95.0,,,
2025-11-16 15:50:18.759,0.31572580337524414,0,0.3,0.3,0,0,0,0,0,0,49.2,1.913,47.7,13.4,42.63,0.643,0,117.0,mixed,95.0,,,
2025-11-16 15:50:19.759,0.3317389488220215,0,0.3,0.3,0,0,0,0,0,0,48.98,-0.216,32.7,3.5,25.02,0.822,0,112.39,mixed,95.0,,,
2025-11-16 15:50:20.759,0.3466627597808838,0,0.3,0.3,0,0,0,0,0,0,49.48,0.498,67.8,4.9,13.07,0.69,0,123.13,mixed,95.0,,,
2025-11-16 15:50:21.759,0.36342930793762207,0,0.3,0.3,0,0,0,0,0,0,50.03,0.554,37.8,12.5,11.41,0.549,0,114.34,mixed,95.0,,,
2025-11-16 15:50:22.759,0.36820220947265625,0,0.3,0.3,0,0,0,0,0,0,52.94,2.904,62.5,4.5,12.21,0.721,0,142.92,mixed,80.0,,,
2025-11-16 15:50:23.759,0.3834853172302246,0,0.3,0.3,0,0,0,0,0,0,52.64,-0.3,21.0,2.8,-0.0,0.861,0,110.35,mixed,95.0,,,
2025-11-16 15:50:24.759,0.3992307186126709,0,0.3,0.3,0,0,0,0,0,0,53.82,1.186,43.4,9.5,7.63,0.826,0,117.54,mixed,95.0,,,
2025-11-16 15:50:25.759,0.4156463146209717,0,0.3,0.3,0,0,0,0,0,0,55.44,1.614,41.6,2.6,5.55,0.668,0,117.67,mixed,95.0,,,
2025-11-16 15:50:26.759,0.43087267875671387,0,0.3,0.3,0,0,0,0,0,0,56.09,0.654,53.4,8.6,-4.3,0.653,0,121.45,mixed,95.0,,,
2025-11-16 15:50:27.759,0.43361520767211914,0,0.3,0.3,0,0,0,0,0,0,57.25,1.157,82.2,0.0,-6.16,0.604,0,130.55,mixed,87.0,,,
2025-11-16 15:50:28.759,0.4396493434906006,0,0.3,0.3,0,0,0,0,0,0,60.73,3.484,57.2,4.5,5.38,0.731,0,144.45,mixed,80.0,,,
2025-11-16 15:50:29.759,0.44942736625671387,0,0.3,0.3,0,0,0,0,0,0,60.57,-0.167,26.3,2.4,1.42,0.749,0,115.12,mixed,95.0,,,
2025-11-16 15:50:30.759,0.4653925895690918,0,0.3,0.3,0,0,0,0,0,0,59.65,-0.918,0,50.9,0.92,0.599,0,106.86,mixed,95.0,,,
2025-11-16 15:50:31.759,0.4813261032104492,0,0.3,0.3,0,0,0,0,0,0,60.13,0.477,28.6,0.0,12.13,0.668,0,115.63,mixed,95.0,,,
2025-11-16 15:50:32.759,0.4974541664123535,0,0.3,0.3,0,0,0,0,0,0,61.19,1.063,51.5,3.5,0.72,0.668,0,122.93,mixed,95.0,,,
2025-11-16 15:50:33.759,0.5131204128265381,0,0.3,0.3,0,0,0,0,0,0,62.38,1.191,61.5,0.2,-4.0,0.709,0,126.41,mixed,95.0,,,
2025-11-16 15:50:34.759,0.52968430519104,0,0.3,0.3,0,0,0,0,0,0,61.7,-0.684,0,51.4,-3.3,0.696,0,107.68,mixed,95.0,,,
2025-11-16 15:50:35.759,0.5466206073760986,0,0.3,0.3,0,0,0,0,0,0,62.88,1.185,44.3,13.0,1.75,0.659,0,121.43,mixed,95.0,,,
2025-11-16 15:50:36.759,0.569904088973999,0,0.3,0.3,0,0,0,0,0,0,64.17,1.287,63.7,3.6,9.63,0.67,0,127.78,mixed,95.0,,,
2025-11-16 15:50:37.759,0.5716981887817383,0,0.3,0.3,0,0,0,0,0,0,64.48,0.309,46.9,16.7,8.29,0.76,0,122.86,mixed,95.0,,,
2025-11-16 15:50:38.759,0.5874762535095215,0,0.3,0.3,0,0,0,0,0,0,66.85,2.373,87.7,0.1,17.59,0.693,0,136.06,mixed,87.0,,,
2025-11-16 15:50:39.759,0.6032862663269043,0,0.3,0.3,0,0,0,0,0,0,66.82,-0.034,47.3,4.3,10.96,0.654,0,123.91,mixed,95.0,,,
2025-11-16 15:50:40.759,0.6198432445526123,0,0.3,0.3,0,0,0,0,0,0,66.7,-0.114,31.0,4.2,17.49,0.654,0,118.97,mixed,95.0,,,
2025-11-16 15:50:41.759,0.6395576000213623,0,0.3,0.3,0,0,0,0,0,0,64.91,-1.796,0,97.7,-0.42,0.783,0,108.96,mixed,95.0,,,
2025-11-16 15:50:42.759,0.645498514175415,0,0.3,0.3,0,0,0,0,0,0,61.77,-3.135,0,100.0,-2.42,0.803,0,117.71,mixed,83.0,,,
2025-11-16 15:50:43.759,0.6614944934844971,0,0.3,0.3,0,0,0,0,0,0,61.1,-0.666,0,39.1,-4.52,0.787,0,107.44,mixed,95.0,,,
2025-11-16 15:50:44.759,0.6772599220275879,0,0.3,0.3,0,0,0,0,0,0,60.14,-0.965,0,54.5,-9.18,0.668,0,107.06,mixed,95.0,,,
2025-11-16 15:50:45.759,0.6810040473937988,0,0.3,0.3,0,0,0,0,0,0,61.45,1.309,52.7,2.6,2.91,0.722,0,123.38,mixed,95.0,,,
2025-11-16 15:50:46.759,0.6964457035064697,0,0.3,0.3,0,0,0,0,0,0,61.67,0.216,50.9,7.3,-2.75,0.727,0,122.94,mixed,95.0,,,
2025-11-16 15:50:47.759,0.7199344635009766,0,0.3,0.3,0,0,0,0,0,0,62.34,0.675,64.0,6.0,-16.9,0.692,0,127.15,mixed,95.0,,,
2025-11-16 15:50:48.759,0.72239089012146,0,0.3,0.3,0,0,0,0,0,0,62.49,0.149,65.9,6.7,-12.44,0.766,0,127.77,mixed,95.0,,,
2025-11-16 15:50:49.759,0.7384371757507324,0,0.3,0.3,0,0,0,0,0,0,63.47,0.98,53.2,0.9,-7.71,0.673,0,124.34,mixed,95.0,,,
2025-11-16 15:50:50.759,0.7544527053833008,0,0.3,0.3,0,0,0,0,0,0,63.57,0.097,81.1,8.8,-0.39,0.88,0,132.77,mixed,87.0,,,
2025-11-16 15:50:51.759,0.770782470703125,0,0.3,0.3,0,0,0,0,0,0,63.92,0.349,23.6,6.1,14.84,0.795,0,115.66,mixed,95.0,,,
2025-11-16 15:50:52.759,0.7865216732025146,0,0.3,0.3,0,0,0,0,0,0,63.88,-0.034,29.9,0.0,12.2,0.675,0,117.51,mixed,95.0,,,
2025-11-16 15:50:53.759,0.802302360534668,0,0.3,0.3,0,0,0,0,0,0,61.32,-2.566,0,87.8,16.29,0.657,0,117.53,mixed,83.0,,,
2025-11-16 15:50:54.759,0.8184318542480469,0,0.3,0.3,0,0,0,0,0,0,60.53,-0.786,0,25.9,5.62,0.68,0,107.21,mixed,95.0,,,
2025-11-16 15:50:55.759,0.8341240882873535,0,0.3,0.3,0,0,0,0,0,0,58.33,-2.199,0,93.0,5.07,0.637,0,106.33,mixed,95.0,,,
2025-11-16 15:50:56.759,0.846430778503418,0,0.3,0.3,0,0,0,0,0,0,58.3,-0.035,43.6,0.0,7.13,0.731,0,119.4,mixed,95.0,,,
2025-11-16 15:50:57.759,0.8644020557403564,0,0.3,0.3,0,0,0,0,0,0,58.21,-0.082,10.3,11.5,8.2,0.544,0,109.37,mixed,95.0,,,
2025-11-16 15:50:58.759,0.8808465003967285,0,0.3,0.3,0,0,0,0,0,0,58.61,0.391,63.5,1.3,16.22,0.656,0,125.48,mixed,95.0,,,
2025-11-16 15:50:59.759,0.8966865539550781,0,0.3,0.3,0,0,0,0,0,0,60.02,1.413,67.2,5.4,14.75,0.746,0,127.16,mixed,95.0,,,
2025-11-16 15:51:00.759,0.9135425090789795,0,0.3,0.3,0,0,0,0,0,0,61.29,1.271,58.7,10.9,8.52,0.643,0,125.11,mixed,95.0,,,
2025-11-16 15:51:01.759,0.9288198947906494,0,0.3,0.3,0,0,0,0,0,0,60.71,-0.582,0,39.0,1.01,0.62,0,107.28,mixed,95.0,,,
2025-11-16 15:51:02.759,0.9331202507019043,0,0.3,0.3,0,0,0,0,0,0,62.96,2.251,48.9,1.1,8.57,0.655,0,122.86,mixed,95.0,,,
2025-11-16 15:51:03.759,0.9396347999572754,0,0.3,0.3,0,0,0,0,0,0,63.11,0.158,62.4,1.5,3.56,0.804,0,126.96,mixed,95.0,,,
2025-11-16 15:51:04.759,0.9495818614959717,0,0.3,0.3,0,0,0,0,0,0,65.09,1.977,75.1,14.5,1.17,0.679,0,131.57,mixed,95.0,,,
2025-11-16 15:51:05.759,0.9654707908630371,0,0.3,0.3,0,0,0,0,0,0,65.98,0.888,63.5,12.6,1.21,0.815,0,128.44,mixed,95.0,,,
2025-11-16 15:51:06.759,0.9814302921295166,0,0.3,0.3,0,0,0,0,0,0,65.55,-0.427,23.7,9.5,-9.41,0.806,0,116.32,mixed,95.0,,,
2025-11-16 15:51:07.759,0.9962549209594727,0,0.27425771945863137,0.42485328292457913,0,0,0,0,0,0,64.63,-0.925,0,41.7,-9.67,0.792,0,108.85,mixed,95.0,,,
2025-11-16 15:51:08.759,1.0119731426239014,0,0.27425771945863137,0.42485328292457913,0,0,0,0,0,0,64.39,-0.242,47.9,1.5,-18.4,0.716,0,123.13,mixed,95.0,,,
2025-11-16 15:51:09.759,1.016059398651123,0,0.27425771945863137,0.42485328292457913,0,0,0,0,0,0,64.71,0.328,80.3,0.0,-20.36,0.656,0,132.97,mixed,87.0,,,
2025-11-16 15:51:10.759,1.029700517654419,0,0.27425771945863137,0.42485328292457913,0,0,0,0,0,0,64.65,-0.066,39.9,9.8,-17.32,0.909,0,120.82,mixed,95.0,,,
2025-11-16 15:51:11.759,1.0466241836547852,0,0.27425771945863137,0.42485328292457913,0,0,0,0,0,0,66.77,2.121,61.9,0.8,-3.44,0.798,0,128.29,mixed,95.0,,,
2025-11-16 15:51:12.759,1.0502145290374756,0,0.27425771945863137,0.42485328292457913,0,0,0,0,0,0,66.51,-0.255,44.5,1.6,-5.38,0.632,0,122.95,mixed,95.0,,,
2025-11-16 15:51:13.759,1.063070297241211,0,0.27425771945863137,0.42485328292457913,0,0,0,0,0,0,68.17,1.654,11.4,4.4,-1.66,0.842,0,113.69,mixed,95.0,,,
2025-11-16 15:51:14.759,1.0652458667755127,0,0.27425771945863137,0.42485328292457913,0,0,0,0,0,0,68.7,0.532,56.4,2.7,-11.2,0.825,0,127.41,mixed,95.0,,,
2025-11-16 15:51:15.759,1.08095383644104,0,0.27425771945863137,0.42485328292457913,0,0,0,0,0,0,69.18,0.484,47.8,10.6,-17.61,0.751,0,125.0,mixed,95.0,,,
2025-11-16 15:51:16.759,1.0987565517425537,0,0.27425771945863137,0.42485328292457913,0,0,0,0,0,0,68.04,-1.148,0,69.6,-17.13,0.624,0,110.21,mixed,95.0,,,
2025-11-16 15:51:17.759,1.1148297786712646,0,0.27425771945863137,0.42485328292457913,0,0,0,0,0,0,69.07,1.037,30.8,0.4,-14.23,0.754,0,119.88,mixed,95.0,,,
2025-11-16 15:51:18.759,1.130894422531128,0,0.27425771945863137,0.42485328292457913,0,0,0,0,0,0,67.51,-1.56,0,98.0,-28.82,0.771,0,110.01,mixed,95.0,,,
2025-11-16 15:51:19.759,1.1468799114227295,0,0.2797149611534762,0.4118760597372935,0,0,0,0,0,0,69.21,1.696,43.3,8.5,-19.57,0.766,0,123.69,mixed,95.0,,,
2025-11-16 15:51:20.759,1.16279935836792,0,0.2797149611534762,0.4118760597372935,0,0,0,0,0,0,70.74,1.526,64.9,0.0,-18.61,0.698,0,130.77,mixed,100,,,
2025-11-16 15:51:21.759,1.1794085502624512,0,0.2797149611534762,0.4118760597372935,0,0,0,0,0,0,70.23,-0.504,0,12.5,-12.93,0.752,0,111.09,mixed,100,,,
2025-11-16 15:51:22.759,1.1820807456970215,0,0.2797149611534762,0.4118760597372935,0,0,0,0,0,0,70.41,0.18,42.1,7.7,-23.64,0.786,0,123.81,mixed,100,,,
2025-11-16 15:51:23.759,1.1976737976074219,0,0.2797149611534762,0.4118760597372935,0,0,0,0,0,0,72.2,1.79,69.8,5.4,-31.39,0.634,0,132.82,mixed,100,,,
2025-11-16 15:51:24.759,1.2134222984313965,0,0.2797149611534762,0.4118760597372935,0,0,0,0,0,0,69.6,-2.597,0,83.0,-31.18,0.731,0,120.84,mixed,83.0,,,
2025-11-16 15:51:25.759,1.2297921180725098,0,0.2797149611534762,0.4118760597372935,0,0,0,0,0,0,68.56,-1.046,0,77.9,-16.38,0.643,0,110.42,mixed,95.0,,,
2025-11-16 15:51:26.759,1.245746374130249,0,0.2797149611534762,0.4118760597372935,0,0,0,0,0,0,67.13,-1.43,0,84.9,-29.68,0.716,0,109.85,mixed,95.0,,,
2025-11-16 15:51:27.759,1.2633600234985352,0,0.2797149611534762,0.4118760597372935,0,0,0,0,0,0,68.1,0.968,59.4,7.9,-26.19,0.739,0,128.05,mixed,95.0,,,
2025-11-16 15:51:28.759,1.2796649932861328,0,0.2797149611534762,0.4118760597372935,0,0,0,0,0,0,68.18,0.081,24.9,0.0,-17.01,0.788,0,117.75,mixed,95.0,,,
2025-11-16 15:51:29.759,1.2956864833831787,0,0.2797149611534762,0.4118760597372935,0,0,0,0,0,0,65.12,-3.061,0,100.0,3.73,0.815,0,119.05,mixed,83.0,,,
2025-11-16 15:51:30.759,1.31160569190979,0,0.2797149611534762,0.4118760597372935,0,0,0,0,0,0,64.89,-0.229,41.3,4.5,11.96,0.785,0,121.34,mixed,95.0,,,
2025-11-16 15:51:31.759,1.329430341720581,0,0.2797149611534762,0.4118760597372935,0,0,0,0,0,0,63.55,-1.336,0,62.1,5.89,0.867,0,108.42,mixed,95.0,,,
2025-11-16 15:51:32.759,1.341531753540039,0,0.2797149611534762,0.4118760597372935,0,0,0,0,0,0,62.34,-1.21,0,81.0,-3.52,0.747,0,107.94,mixed,95.0,,,
2025-11-16 15:51:33.759,1.3566796779632568,0,0.2797149611534762,0.4118760597372935,0,0,0,0,0,0,62.32,-0.018,25.2,13.7,-6.43,0.645,0,115.5,mixed,95.0,,,
2025-11-16 15:51:34.759,1.3654415607452393,0,0.2797149611534762,0.4118760597372935,0,0,0,0,0,0,62.94,0.614,76.7,4.7,-20.86,0.643,0,131.2,mixed,95.0,,,
2025-11-16 15:51:35.759,1.3807873725891113,0,0.2797149611534762,0.4118760597372935,0,0,0,0,0,0,63.93,0.997,47.6,7.0,-23.84,0.667,0,122.85,mixed,95.0,,,
2025-11-16 15:51:36.759,1.396601915359497,0,0.2797149611534762,0.4118760597372935,0,0,0,0,0,0,65.86,1.931,47.3,7.7,-12.14,0.683,0,123.54,mixed,95.0,,,
2025-11-16 15:51:37.759,1.4126176834106445,0,0.2797149611534762,0.4118760597372935,0,0,0,0,0,0,66.1,0.239,38.9,13.7,1.76,0.688,0,121.12,mixed,95.0,,,
2025-11-16 15:51:38.759,1.417283296585083,0,0.2797149611534762,0.4118760597372935,0,0,0,0,0,0,62.99,-3.113,0,100.0,-11.77,0.649,0,118.2,mixed,83.0,,,
2025-11-16 15:51:39.759,1.4341399669647217,0,0.2797149611534762,0.4118760597372935,0,0,0,0,0,0,62.05,-0.941,0,58.9,-8.94,0.559,0,107.82,mixed,95.0,,,
2025-11-16 15:51:40.759,1.449709177017212,0,0.2797149611534762,0.4118760597372935,0,0,0,0,0,0,61.62,-0.433,45.1,0.0,-16.06,0.62,0,121.16,mixed,95.0,,,
2025-11-16 15:51:41.759,1.4657337665557861,0,0.2797149611534762,0.4118760597372935,0,0,0,0,0,0,60.62,-1.001,0,65.2,-23.43,0.671,0,107.25,mixed,95.0,,,
2025-11-16 15:51:42.759,1.4815552234649658,0,0.2797149611534762,0.4118760597372935,0,0,0,0,0,0,61.9,1.288,44.4,1.3,-40.1,0.868,0,121.09,mixed,95.0,,,
2025-11-16 15:51:43.759,1.4975790977478027,0,0.2797149611534762,0.4118760597372935,0,0,0,0,0,0,60.47,-1.431,0,95.0,-31.01,0.667,0,107.19,mixed,95.0,,,
2025-11-16 15:51:44.759,1.5134799480438232,0,0.2797149611534762,0.4118760597372935,0,0,0,0,0,0,58.72,-1.754,0,100.0,-44.14,0.696,0,106.49,mixed,95.0,,,
2025-11-16 15:51:45.759,1.5297484397888184,0,0.2797149611534762,0.4118760597372935,0,0,0,0,0,0,60.78,2.056,80.4,0.5,-43.37,0.568,0,131.43,mixed,87.0,,,
2025-11-16 15:51:46.759,1.5467901229858398,0,0.2797149611534762,0.4118760597372935,0,0,0,0,0,0,61.57,0.795,75.0,0.0,-31.75,0.767,0,130.12,mixed,95.0,,,
2025-11-16 15:51:47.759,1.5625760555267334,0,0.2797149611534762,0.4118760597372935,0,0,0,0,0,0,62.96,1.395,50.5,5.6,-32.25,0.789,0,123.34,mixed,95.0,,,
2025-11-16 15:51:48.759,1.578423023223877,0,0.2797149611534762,0.4118760597372935,0,0,0,0,0,0,61.17,-1.793,0,99.1,-34.4,0.571,0,107.47,mixed,95.0,,,
2025-11-16 15:51:49.759,1.594402551651001,0,0.2797149611534762,0.4118760597372935,0,0,0,0,0,0,61.35,0.174,71.0,10.6,-28.48,0.651,0,128.83,mixed,95.0,,,
2025-11-16 15:51:50.759,1.6096694469451904,0,0.2797149611534762,0.4118760597372935,0,0,0,0,0,0,61.54,0.191,58.0,2.4,-25.98,0.755,0,125.01,mixed,95.0,,,
2025-11-16 15:51:51.759,1.6255223751068115,0,0.2797149611534762,0.4118760597372935,0,0,0,0,0,0,65.21,3.67,33.5,0.0,-14.91,0.639,0,139.13,mixed,80.0,,,
2025-11-16 15:51:52.759,1.6415767669677734,0,0.21580607851615485,0.4243747325675853,0,0,0,0,0,0,66.33,1.12,31.5,22.0,-19.49,0.72,0,118.98,mixed,95.0,,,
2025-11-16 15:51:53.759,1.6573457717895508,0,0.21580607851615485,0.4243747325675853,0,0,0,0,0,0,67.03,0.7,44.4,0.0,-24.99,0.713,0,123.13,mixed,95.0,,,
2025-11-16 15:51:54.759,1.6779553890228271,0,0.21580607851615485,0.4243747325675853,0,0,0,0,0,0,65.08,-1.95,0,100.0,-31.47,0.693,0,109.03,mixed,95.0,,,
2025-11-16 15:51:55.759,1.6815297603607178,0,0.21580607851615485,0.4243747325675853,0,0,0,0,0,0,62.77,-2.304,0,100.0,-39.47,0.706,0,108.11,mixed,95.0,,,
2025-11-16 15:51:56.759,1.696584939956665,0,0.21580607851615485,0.4243747325675853,0,0,0,0,0,0,61.93,-0.847,0,43.5,-42.38,0.695,0,107.77,mixed,95.0,,,
2025-11-16 15:51:57.759,1.7125091552734375,0,0.21580607851615485,0.4243747325675853,0,0,0,0,0,0,62.2,0.269,45.2,3.6,-36.85,0.727,0,121.45,mixed,95.0,,,
2025-11-16 15:51:58.759,1.7282662391662598,0,0.21580607851615485,0.4243747325675853,0,0,0,0,0,0,62.51,0.315,73.2,0.0,-31.35,0.62,0,129.96,mixed,95.0,,,
2025-11-16 15:51:59.759,1.7444267272949219,0,0.21580607851615485,0.4243747325675853,0,0,0,0,0,0,63.01,0.504,66.0,4.3,-30.93,0.62,0,128.02,mixed,95.0,,,
2025-11-16 15:52:00.759,1.759582757949829,0,0.21580607851615485,0.4243747325675853,0,0,0,0,0,0,61.58,-1.431,0,97.9,-36.04,0.741,0,107.63,mixed,95.0,,,
2025-11-16 15:52:01.759,1.7641427516937256,0,0.21580607851615485,0.4243747325675853,0,0,0,0,0,0,61.77,0.185,33.5,0.0,-39.83,0.69,0,117.77,mixed,95.0,,,
2025-11-16 15:52:02.759,1.7804005146026611,0,0.21580607851615485,0.4243747325675853,0,0,0,0,0,0,61.73,-0.039,31.6,7.1,-35.03,0.641,0,117.16,mixed,95.0,,,
2025-11-16 15:52:03.759,1.796278953552246,0,0.23725518876957222,0.49264692340693356,0,0,0,0,0,0,62.65,0.917,50.9,7.1,-18.45,0.717,0,123.31,mixed,95.0,,,
2025-11-16 15:52:04.759,1.8124032020568848,0,0.23725518876957222,0.49264692340693356,0,0,0,0,0,0,63.46,0.812,97.1,12.4,-10.38,0.592,0,137.53,mixed,87.0,,,
2025-11-16 15:52:05.759,1.8294172286987305,0,0.23725518876957222,0.49264692340693356,0,0,0,0,0,0,64.49,1.029,73.1,0.5,-4.8,0.775,0,130.74,mixed,95.0,,,
2025-11-16 15:52:06.759,1.8384439945220947,0,0.23725518876957222,0.49264692340693356,0,0,0,0,0,0,64.64,0.15,44.9,3.3,-4.34,0.809,0,122.31,mixed,95.0,,,
2025-11-16 15:52:07.759,1.8479211330413818,0,0.23725518876957222,0.49264692340693356,0,0,0,0,0,0,64.83,0.191,54.4,1.3,-4.86,0.729,0,125.24,mixed,95.0,,,
2025-11-16 15:52:08.759,1.8630049228668213,0,0.23725518876957222,0.49264692340693356,0,0,0,0,0,0,63.94,-0.886,0,55.1,-4.12,0.718,0,108.58,mixed,95.0,,,
2025-11-16 15:52:09.759,1.8796193599700928,0,0.23725518876957222,0.49264692340693356,0,0,0,0,0,0,65.78,1.837,73.4,7.6,-1.11,0.766,0,131.32,mixed,95.0,,,
2025-11-16 15:52:10.759,1.895430326461792,0,0.23725518876957222,0.49264692340693356,0,0,0,0,0,0,65.66,-0.117,20.9,0.0,7.99,0.549,0,115.54,mixed,95.0,,,
2025-11-16 15:52:11.759,1.9114971160888672,0,0.23725518876957222,0.49264692340693356,0,0,0,0,0,0,67.06,1.393,56.8,0.0,6.7,0.695,0,126.85,mixed,95.0,,,
2025-11-16 15:52:12.759,1.9168179035186768,0,0.23725518876957222,0.49264692340693356,0,0,0,0,0,0,65.98,-1.076,0,61.0,25.73,0.526,0,109.39,mixed,95.0,,,
2025-11-16 15:52:13.759,1.933366298675537,0,0.23725518876957222,0.49264692340693356,0,0,0,0,0,0,65.68,-0.295,44.9,10.6,5.51,0.563,0,122.75,mixed,95.0,,,
2025-11-16 15:52:14.759,1.9494819641113281,0,0.26971469418115357,0.44944827396779136,0,0,0,0,0,0,66.62,0.94,47.5,0.2,5.87,0.712,0,123.91,mixed,95.0,,,
2025-11-16 15:52:15.759,1.9652786254882812,0,0.26971469418115357,0.44944827396779136,0,0,0,0,0,0,65.04,-1.588,0,100.0,-7.24,0.718,0,109.01,mixed,95.0,,,
2025-11-16 15:52:16.759,1.9894146919250488,0,0.26971469418115357,0.44944827396779136,0,0,0,0,0,0,63.75,-1.289,0,91.3,5.41,0.712,0,108.5,mixed,95.0,,,
2025-11-16 15:52:17.759,1.9935121536254883,0,0.26971469418115357,0.44944827396779136,0,0,0,0,0,0,63.19,-0.557,0,20.9,9.91,0.623,0,108.28,mixed,95.0,,,
2025-11-16 15:52:18.759,2.010178565979004,0,0.26971469418115357,0.44944827396779136,0,0,0,0,0,0,65.4,2.206,40.3,4.3,22.12,0.574,0,121.24,mixed,95.0,,,
2025-11-16 15:52:19.759,2.012974262237549,0,0.26971469418115357,0.44944827396779136,0,0,0,0,0,0,67.48,2.089,52.1,0.0,13.76,0.638,0,125.62,mixed,95.0,,,
2025-11-16 15:52:20.759,2.029709577560425,0,0.26971469418115357,0.44944827396779136,0,0,0,0,0,0,67.56,0.076,35.9,9.3,14.04,0.717,0,120.79,mixed,95.0,,,
2025-11-16 15:52:21.759,2.0463147163391113,0,0.26971469418115357,0.44944827396779136,0,0,0,0,0,0,66.68,-0.883,0,62.6,7.05,0.672,0,109.67,mixed,95.0,,,
2025-11-16 15:52:22.759,2.063215494155884,0,0.26971469418115357,0.44944827396779136,0,0,0,0,0,0,63.6,-3.074,0,88.6,11.75,0.812,0,118.44,mixed,83.0,,,
2025-11-16 15:52:23.759,2.0651917457580566,0,0.26971469418115357,0.44944827396779136,0,0,0,0,0,0,62.03,-1.576,0,95.7,19.83,0.747,0,107.81,mixed,95.0,,,
2025-11-16 15:52:24.759,2.0797197818756104,0,0.26971469418115357,0.44944827396779136,0,0,0,0,0,0,63.78,1.748,50.7,1.3,8.16,0.733,0,123.72,mixed,95.0,,,
2025-11-16 15:52:25.759,2.0825726985931396,0,0.26971469418115357,0.44944827396779136,0,0,0,0,0,0,64.45,0.673,46.2,7.1,12.56,0.665,0,122.63,mixed,95.0,,,
2025-11-16 15:52:26.759,2.0995161533355713,0,0.26971469418115357,0.44944827396779136,0,0,0,0,0,0,65.55,1.1,47.5,6.8,11.76,0.595,0,123.47,mixed,95.0,,,
2025-11-16 15:52:27.759,2.114672899246216,0,0.2513481898131573,0.4563119862451931,0,0,0,0,0,0,66.77,1.221,56.1,13.8,22.85,0.769,0,126.54,mixed,95.0,,,
2025-11-16 15:52:28.759,2.1305601596832275,0,0.2513481898131573,0.4563119862451931,0,0,0,0,0,0,65.51,-1.261,0,92.4,17.58,0.67,0,109.2,mixed,95.0,,,
2025-11-16 15:52:29.759,2.146552324295044,0,0.2513481898131573,0.4563119862451931,0,0,0,0,0,0,64.89,-0.615,0,37.4,17.56,0.774,0,108.96,mixed,95.0,,,
2025-11-16 15:52:30.759,2.162585735321045,0,0.2513481898131573,0.4563119862451931,0,0,0,0,0,0,67.03,2.137,67.6,0.0,5.72,0.749,0,130.09,mixed,95.0,,,
2025-11-16 15:52:31.759,2.1783499717712402,0,0.2513481898131573,0.4563119862451931,0,0,0,0,0,0,68.19,1.162,45.5,6.4,6.99,0.712,0,123.92,mixed,95.0,,,
2025-11-16 15:52:32.759,2.180872917175293,0,0.2513481898131573,0.4563119862451931,0,0,0,0,0,0,67.39,-0.799,0,54.6,16.84,0.73,0,109.96,mixed,95.0,,,
2025-11-16 15:52:33.759,2.1964824199676514,0,0.2513481898131573,0.4563119862451931,0,0,0,0,0,0,65.87,-1.52,0,100.0,10.73,0.557,0,109.35,mixed,95.0,,,
2025-11-16 15:52:34.759,2.213589906692505,0,0.2513481898131573,0.4563119862451931,0,0,0,0,0,0,64.66,-1.214,0,81.4,17.39,0.651,0,108.86,mixed,95.0,,,
2025-11-16 15:52:35.759,2.229402780532837,0,0.2513481898131573,0.4563119862451931,0,0,0,0,0,0,62.42,-2.241,0,100.0,3.96,0.708,0,107.97,mixed,95.0,,,
2025-11-16 15:52:36.759,2.2453057765960693,0,0.2513481898131573,0.4563119862451931,0,0,0,0,0,0,64.31,1.892,42.8,4.0,0.04,0.689,0,121.56,mixed,95.0,,,
2025-11-16 15:52:37.759,2.2614312171936035,0,0.2513481898131573,0.4563119862451931,0,0,0,0,0,0,61.94,-2.373,0,89.4,6.59,0.565,0,107.78,mixed,95.0,,,
2025-11-16 15:52:38.759,2.2770957946777344,0,0.2513481898131573,0.4563119862451931,0,0,0,0,0,0,63.71,1.772,62.9,10.1,4.65,0.684,0,127.35,mixed,95.0,,,
2025-11-16 15:52:39.759,2.2926888465881348,0,0.2513481898131573,0.4563119862451931,0,0,0,0,0,0,64.58,0.87,33.4,9.5,8.28,0.686,0,118.85,mixed,95.0,,,
2025-11-16 15:52:40.759,2.2989003658294678,0,0.2513481898131573,0.4563119862451931,0,0,0,0,0,0,63.62,-0.964,0,56.5,14.25,0.699,0,108.45,mixed,95.0,,,
2025-11-16 15:52:41.759,2.309516429901123,0,0.2513481898131573,0.4563119862451931,0,0,0,0,0,0,62.62,-0.992,0,49.4,13.24,0.729,0,108.05,mixed,95.0,,,
2025-11-16 15:52:42.759,2.3152995109558105,0,0.2513481898131573,0.4563119862451931,0,0,0,0,0,0,61.08,-1.542,0,100.0,13.56,0.644,0,107.43,mixed,95.0,,,
2025-11-16 15:52:43.759,2.3311643600463867,0,0.2513481898131573,0.4563119862451931,0,0,0,0,0,0,61.43,0.349,49.6,6.5,25.46,0.636,0,122.47,mixed,95.0,,,
2025-11-16 15:52:44.759,2.346886157989502,0,0.2513481898131573,0.4563119862451931,0,0,0,0,0,0,59.45,-1.984,0,100.0,23.25,0.687,0,106.78,mixed,95.0,,,
2025-11-16 15:52:45.759,2.3627326488494873,0,0.2513481898131573,0.4563119862451931,0,0,0,0,0,0,59.16,-0.286,15.9,4.7,32.73,0.641,0,111.44,mixed,95.0,,,
2025-11-16 15:52:46.759,2.3651750087738037,0,0.2513481898131573,0.4563119862451931,0,0,0,0,0,0,59.23,0.069,57.8,3.6,42.96,0.678,0,124.03,mixed,95.0,,,
2025-11-16 15:52:47.759,2.3807222843170166,0,0.2513481898131573,0.4563119862451931,0,0,0,0,0,0,60.75,1.517,51.3,5.7,44.19,0.61,0,122.69,mixed,95.0,,,
2025-11-16 15:52:48.759,2.3949553966522217,0,0.2513481898131573,0.4563119862451931,0,0,0,0,0,0,60.66,-0.082,33.0,3.4,41.38,0.644,0,117.17,mixed,95.0,,,
2025-11-16 15:52:49.759,2.4110469818115234,0,0.2513481898131573,0.4563119862451931,0,0,0,0,0,0,61.11,0.45,44.6,5.6,39.29,0.747,0,120.82,mixed,95.0,,,
2025-11-16 15:52:50.759,2.417234182357788,0,0.2513481898131573,0.4563119862451931,0,0,0,0,0,0,61.47,0.353,62.7,9.7,44.99,0.692,0,126.4,mixed,95.0,,,
2025-11-16 15:52:51.759,2.419856309890747,0,0.2513481898131573,0.4563119862451931,0,0,0,0,0,0,61.06,-0.412,40.5,0.0,31.07,0.844,0,119.57,mixed,95.0,,,
2025-11-16 15:52:52.759,2.433924436569214,0,0.2513481898131573,0.4563119862451931,0,0,0,0,0,0,61.37,0.319,46.1,0.7,42.12,0.704,0,121.39,mixed,95.0,,,
2025-11-16 15:52:53.759,2.449476718902588,0,0.2513481898131573,0.4563119862451931,0,0,0,0,0,0,61.48,0.101,46.4,0.7,45.0,0.625,0,121.5,mixed,95.0,,,
2025-11-16 15:52:54.759,2.4656636714935303,0,0.2513481898131573,0.4563119862451931,0,0,0,0,0,0,59.93,-1.551,0,100.0,33.53,0.609,0,106.97,mixed,95.0,,,
2025-11-16 15:52:55.759,2.481544017791748,0,0.2513481898131573,0.4563119862451931,0,0,0,0,0,0,59.99,0.061,45.4,7.9,35.82,0.69,0,120.63,mixed,95.0,,,
2025-11-16 15:52:56.759,2.4972212314605713,0,0.2513481898131573,0.4563119862451931,0,0,0,0,0,0,62.31,2.323,33.0,2.9,36.42,0.719,0,117.82,mixed,95.0,,,
2025-11-16 15:52:57.759,2.512915849685669,0,0.2513481898131573,0.4563119862451931,0,0,0,0,0,0,62.18,-0.132,30.6,9.5,28.42,0.673,0,117.05,mixed,95.0,,,
2025-11-16 15:52:58.759,2.528836965560913,0,0.2513481898131573,0.4563119862451931,0,0,0,0,0,0,61.92,-0.257,27.3,4.6,36.32,0.658,0,115.95,mixed,95.0,,,
2025-11-16 15:52:59.759,2.530893564224243,0,0.2513481898131573,0.4563119862451931,0,0,0,0,0,0,62.93,1.005,48.4,0.0,30.93,0.617,0,122.68,mixed,95.0,,,
2025-11-16 15:53:00.759,2.5465075969696045,0,0.2513481898131573,0.4563119862451931,0,0,0,0,0,0,64.51,1.587,47.9,4.1,33.22,0.645,0,123.17,mixed,95.0,,,
2025-11-16 15:53:01.759,2.5634186267852783,0,0.2513481898131573,0.4563119862451931,0,0,0,0,0,0,64.47,-0.046,21.3,3.7,24.3,0.691,0,115.17,mixed,95.0,,,
2025-11-16 15:53:02.759,2.5795204639434814,0,0.25171383482716686,0.44836778855123754,0,0,0,0,0,0,65.31,0.845,47.5,7.5,21.82,0.872,0,123.38,mixed,95.0,,,
2025-11-16 15:53:03.759,2.5952773094177246,0,0.25171383482716686,0.44836778855123754,0,0,0,0,0,0,64.64,-0.668,0,69.5,35.09,0.655,0,108.86,mixed,95.0,,,
2025-11-16 15:53:04.759,2.6167893409729004,0,0.25171383482716686,0.44836778855123754,0,0,0,0,0,0,64.79,0.145,82.0,10.9,36.8,0.583,0,133.53,mixed,87.0,,,
2025-11-16 15:53:05.759,2.6325528621673584,0,0.25171383482716686,0.44836778855123754,0,0,0,0,0,0,64.23,-0.56,0,49.7,33.63,0.541,0,108.69,mixed,95.0,,,
2025-11-16 15:53:06.759,2.6482644081115723,0,0.25171383482716686,0.44836778855123754,0,0,0,0,0,0,63.78,-0.446,19.0,6.1,31.4,0.718,0,114.21,mixed,95.0,,,
2025-11-16 15:53:07.759,2.6644153594970703,0,0.25171383482716686,0.44836778855123754,0,0,0,0,0,0,63.26,-0.528,0,39.4,30.54,0.595,0,108.3,mixed,95.0,,,
2025-11-16 15:53:08.759,2.679819107055664,0,0.25171383482716686,0.44836778855123754,0,0,0,0,0,0,65.29,2.036,49.0,3.0,20.57,0.638,0,123.83,mixed,95.0,,,
2025-11-16 15:53:09.759,2.6956660747528076,0,0.25171383482716686,0.44836778855123754,0,0,0,0,0,0,65.6,0.305,29.9,8.2,20.88,0.676,0,118.21,mixed,95.0,,,
2025-11-16 15:53:10.759,2.713099241256714,0,0.25171383482716686,0.44836778855123754,0,0,0,0,0,0,66.4,0.806,45.4,2.5,12.85,0.615,0,123.19,mixed,95.0,,,
2025-11-16 15:53:11.759,2.7290024757385254,0,0.25641830693472734,0.46928085194622193,0,0,0,0,0,0,65.84,-0.567,0,44.3,0.21,0.738,0,109.33,mixed,95.0,,,
2025-11-16 15:53:12.759,2.7448809146881104,0,0.25641830693472734,0.46928085194622193,0,0,0,0,0,0,65.99,0.155,72.0,12.7,-7.69,0.52,0,130.99,mixed,95.0,,,
2025-11-16 15:53:13.759,2.761167287826538,0,0.25641830693472734,0.46928085194622193,0,0,0,0,0,0,65.76,-0.234,19.2,6.4,6.42,0.599,0,115.07,mixed,95.0,,,
2025-11-16 15:53:14.759,2.7765026092529297,0,0.25641830693472734,0.46928085194622193,0,0,0,0,0,0,66.13,0.373,35.8,5.5,11.26,0.485,0,120.2,mixed,95.0,,,
2025-11-16 15:53:15.759,2.7923622131347656,0,0.25641830693472734,0.46928085194622193,0,0,0,0,0,0,66.18,0.048,51.5,0.0,10.24,0.596,0,124.93,mixed,95.0,,,
2025-11-16 15:53:16.759,2.8083622455596924,0,0.25641830693472734,0.46928085194622193,0,0,0,0,0,0,65.23,-0.953,0,64.5,12.21,0.602,0,109.09,mixed,95.0,,,
2025-11-16 15:53:17.759,2.824359178543091,0,0.25641830693472734,0.46928085194622193,0,0,0,0,0,0,66.77,1.548,43.5,8.8,-3.26,0.69,0,122.75,mixed,95.0,,,
2025-11-16 15:53:18.759,2.8308238983154297,0,0.25641830693472734,0.46928085194622193,0,0,0,0,0,0,67.39,0.621,59.1,13.3,-8.33,0.693,0,127.69,mixed,95.0,,,
2025-11-16 15:53:19.759,2.8468852043151855,0,0.25641830693472734,0.46928085194622193,0,0,0,0,0,0,67.16,-0.234,23.1,5.3,2.26,0.661,0,116.81,mixed,95.0,,,
2025-11-16 15:53:20.759,2.8630878925323486,0,0.25641830693472734,0.46928085194622193,0,0,0,0,0,0,68.2,1.042,57.1,14.8,-0.54,0.668,0,127.42,mixed,95.0,,,
2025-11-16 15:53:21.759,2.8652169704437256,0,0.25641830693472734,0.46928085194622193,0,0,0,0,0,0,69.08,0.874,46.9,7.2,-4.11,0.461,0,124.69,mixed,95.0,,,
2025-11-16 15:53:22.759,2.879969596862793,0,0.25641830693472734,0.46928085194622193,0,0,0,0,0,0,66.79,-2.289,0,100.0,1.32,0.79,0,109.72,mixed,95.0,,,
2025-11-16 15:53:23.759,2.895775556564331,0,0.2411158441868639,0.40390554960400105,0,0,0,0,0,0,65.61,-1.178,0,78.7,-2.72,0.48,0,109.24,mixed,95.0,,,
2025-11-16 15:53:24.759,2.9115347862243652,0,0.2411158441868639,0.40390554960400105,0,0,0,0,0,0,64.27,-1.34,0,90.1,9.59,0.73,0,108.71,mixed,95.0,,,
2025-11-16 15:53:25.759,2.9296979904174805,0,0.2411158441868639,0.40390554960400105,0,0,0,0,0,0,63.19,-1.081,0,65.8,3.16,0.59,0,108.28,mixed,95.0,,,
2025-11-16 15:53:26.759,2.936964988708496,0,0.2411158441868639,0.40390554960400105,0,0,0,0,0,0,63.1,-0.087,26.8,8.3,12.36,0.672,0,116.28,mixed,95.0,,,
2025-11-16 15:53:27.759,2.953066349029541,0,0.2411158441868639,0.40390554960400105,0,0,0,0,0,0,60.35,-2.749,0,100.0,-5.77,0.733,0,117.14,mixed,83.0,,,
2025-11-16 15:53:28.759,2.96891713142395,0,0.2411158441868639,0.40390554960400105,0,0,0,0,0,0,60.07,-0.281,11.9,12.2,5.72,0.589,0,110.59,mixed,95.0,,,
2025-11-16 15:53:29.759,2.9846880435943604,0,0.2411158441868639,0.40390554960400105,0,0,0,0,0,0,58.73,-1.343,0,98.3,15.49,0.756,0,106.49,mixed,95.0,,,
2025-11-16 15:53:30.759,3.000929594039917,0,0.2411158441868639,0.40390554960400105,0,0,0,0,0,0,58.97,0.237,31.8,3.7,12.66,0.593,0,116.12,mixed,95.0,,,
2025-11-16 15:53:31.759,3.0169172286987305,0,0.2411158441868639,0.40390554960400105,0,0,0,0,0,0,58.8,-0.161,21.1,3.2,6.8,0.691,0,112.84,mixed,95.0,,,
2025-11-16 15:53:32.759,3.0309488773345947,0,0.2411158441868639,0.40390554960400105,0,0,0,0,0,0,61.74,2.933,39.5,1.1,2.65,0.703,0,139.53,mixed,80.0,,,
2025-11-16 15:53:33.759,3.0463266372680664,0,0.24979983005708836,0.4128182055292053,0,0,0,0,0,0,61.11,-0.629,0,37.9,-1.5,0.655,0,107.44,mixed,95.0,,,
2025-11-16 15:53:34.759,3.063344955444336,0,0.24979983005708836,0.4128182055292053,0,0,0,0,0,0,59.58,-1.526,0,100.0,0.98,0.778,0,106.83,mixed,95.0,,,
2025-11-16 15:53:35.759,3.0664286613464355,0,0.24979983005708836,0.4128182055292053,0,0,0,0,0,0,58.86,-0.725,0,52.1,-7.85,0.662,0,106.54,mixed,95.0,,,
2025-11-16 15:53:36.759,3.0811381340026855,0,0.24979983005708836,0.4128182055292053,0,0,0,0,0,0,59.58,0.722,25.3,8.8,-11.94,0.673,0,114.41,mixed,95.0,,,
2025-11-16 15:53:37.759,3.083826780319214,0,0.24979983005708836,0.4128182055292053,0,0,0,0,0,0,61.22,1.64,44.5,6.0,-10.73,0.646,0,120.83,mixed,95.0,,,
2025-11-16 15:53:38.759,3.089505672454834,0,0.24979983005708836,0.4128182055292053,0,0,0,0,0,0,61.21,-0.013,39.5,0.0,13.76,0.653,0,119.34,mixed,95.0,,,
2025-11-16 15:53:39.759,3.0974860191345215,0,0.24979983005708836,0.4128182055292053,0,0,0,0,0,0,60.74,-0.468,0,27.5,9.85,0.782,0,107.3,mixed,95.0,,,
2025-11-16 15:53:40.759,3.0992555618286133,0,0.24979983005708836,0.4128182055292053,0,0,0,0,0,0,62.75,2.011,56.6,3.3,10.05,0.529,0,125.07,mixed,95.0,,,
2025-11-16 15:53:41.759,3.115330934524536,0,0.24979983005708836,0.4128182055292053,0,0,0,0,0,0,63.53,0.778,60.4,5.9,10.78,0.586,0,126.52,mixed,95.0,,,
2025-11-16 15:53:42.759,3.131164073944092,0,0.24979983005708836,0.4128182055292053,0,0,0,0,0,0,63.49,-0.042,44.6,1.2,15.26,0.605,0,121.79,mixed,95.0,,,
2025-11-16 15:53:43.759,3.146772623062134,0,0.24979983005708836,0.4128182055292053,0,0,0,0,0,0,62.9,-0.587,0,41.0,7.76,0.593,0,108.16,mixed,95.0,,,
2025-11-16 15:53:44.759,3.1625537872314453,0,0.24979983005708836,0.4128182055292053,0,0,0,0,0,0,60.11,-2.787,0,100.0,7.42,0.712,0,117.05,mixed,83.0,,,
2025-11-16 15:53:45.759,3.1791677474975586,0,0.24979983005708836,0.4128182055292053,0,0,0,0,0,0,60.18,0.062,54.7,5.8,8.0,0.596,0,123.49,mixed,95.0,,,
2025-11-16 15:53:46.759,3.195080518722534,0,0.24979983005708836,0.4128182055292053,0,0,0,0,0,0,60.15,-0.024,19.8,13.2,9.08,0.648,0,113.0,mixed,95.0,,,
2025-11-16 15:53:47.759,3.1975300312042236,0,0.24979983005708836,0.4128182055292053,0,0,0,0,0,0,60.24,0.091,45.3,1.6,8.02,0.631,0,120.68,mixed,95.0,,,
2025-11-16 15:53:48.759,3.2131693363189697,0,0.24979983005708836,0.4128182055292053,0,0,0,0,0,0,60.53,0.281,33.6,7.4,2.89,0.697,0,117.29,mixed,95.0,,,
2025-11-16 15:53:49.759,3.2305288314819336,0,0.24979983005708836,0.4128182055292053,0,0,0,0,0,0,58.48,-2.051,0,96.1,-5.74,0.656,0,106.39,mixed,95.0,,,
2025-11-16 15:53:50.759,3.233489751815796,0,0.24979983005708836,0.4128182055292053,0,0,0,0,0,0,57.27,-1.203,0,77.3,-18.71,0.609,0,105.91,mixed,95.0,,,
2025-11-16 15:53:51.759,3.2458794116973877,0,0.24979983005708836,0.4128182055292053,0,0,0,0,0,0,56.26,-1.013,0,48.6,-13.08,0.402,0,105.5,mixed,95.0,,,
2025-11-16 15:53:52.759,3.249396800994873,0,0.24979983005708836,0.4128182055292053,0,0,0,0,0,0,56.61,0.349,49.2,3.5,-21.0,0.635,0,120.42,mixed,95.0,,,
2025-11-16 15:53:53.759,3.2652435302734375,0,0.24979983005708836,0.4128182055292053,0,0,0,0,0,0,58.06,1.454,67.2,8.8,-20.91,0.639,0,126.4,mixed,95.0,,,
2025-11-16 15:53:54.759,3.28125262260437,0,0.24979983005708836,0.4128182055292053,0,0,0,0,0,0,57.94,-0.119,12.0,5.6,-34.78,0.775,0,109.78,mixed,95.0,,,
2025-11-16 15:53:55.759,3.296968936920166,0,0.24979983005708836,0.4128182055292053,0,0,0,0,0,0,58.92,0.972,41.8,0.6,-23.59,0.71,0,119.09,mixed,95.0,,,
2025-11-16 15:53:56.759,3.3126702308654785,0,0.24979983005708836,0.4128182055292053,0,0,0,0,0,0,59.99,1.069,51.4,0.7,-29.68,0.692,0,122.41,mixed,95.0,,,
2025-11-16 15:53:57.759,3.3286244869232178,0,0.24979983005708836,0.4128182055292053,0,0,0,0,0,0,62.56,2.58,86.3,8.2,-31.01,0.655,0,153.93,mixed,72.0,,,
2025-11-16 15:53:58.759,3.3443443775177,0,0.24979983005708836,0.4128182055292053,0,0,0,0,0,0,62.39,-0.173,36.9,6.6,-34.71,0.597,0,119.02,mixed,95.0,,,
2025-11-16 15:53:59.759,3.3474581241607666,0,0.24979983005708836,0.4128182055292053,0,0,0,0,0,0,63.46,1.064,45.3,3.4,-20.37,0.699,0,121.98,mixed,95.0,,,
2025-11-16 15:54:00.759,3.3637304306030273,0,0.24979983005708836,0.4128182055292053,0,0,0,0,0,0,63.32,-0.141,32.6,1.3,-4.7,0.562,0,118.09,mixed,95.0,,,
2025-11-16 15:54:01.759,3.379481077194214,0,0.29667665127503806,0.5268952777404157,0,0,0,0,0,0,63.84,0.521,54.0,9.7,-10.58,0.551,0,124.72,mixed,95.0,,,
2025-11-16 15:54:02.759,3.3965413570404053,0,0.29667665127503806,0.5268952777404157,0,0,0,0,0,0,63.72,-0.118,25.9,11.4,-15.75,0.643,0,116.26,mixed,95.0,,,
2025-11-16 15:54:03.759,3.4116883277893066,0,0.29667665127503806,0.5268952777404157,0,0,0,0,0,0,64.0,0.277,58.2,4.2,-4.6,0.631,0,126.07,mixed,95.0,,,
2025-11-16 15:54:04.759,3.4191813468933105,0,0.29667665127503806,0.5268952777404157,0,0,0,0,0,0,64.22,0.221,23.4,3.3,-8.91,0.641,0,115.71,mixed,95.0,,,
2025-11-16 15:54:05.759,3.4357149600982666,0,0.29667665127503806,0.5268952777404157,0,0,0,0,0,0,65.83,1.617,33.2,4.4,-3.96,0.76,0,119.31,mixed,95.0,,,
2025-11-16 15:54:06.759,3.451566457748413,0,0.29667665127503806,0.5268952777404157,0,0,0,0,0,0,66.31,0.476,32.9,7.5,-5.32,0.7,0,119.38,mixed,95.0,,,
2025-11-16 15:54:07.759,3.467496871948242,0,0.29667665127503806,0.5268952777404157,0,0,0,0,0,0,67.24,0.933,46.6,0.0,-14.1,0.676,0,123.88,mixed,95.0,,,
2025-11-16 15:54:08.759,3.4832305908203125,0,0.29667665127503806,0.5268952777404157,0,0,0,0,0,0,65.01,-2.234,0,100.0,-17.66,0.514,0,109.0,mixed,95.0,,,
2025-11-16 15:54:09.759,3.4990885257720947,0,0.29667665127503806,0.5268952777404157,0,0,0,0,0,0,65.72,0.71,42.0,4.6,-8.14,0.679,0,121.88,mixed,95.0,,,
2025-11-16 15:54:10.759,3.514831304550171,0,0.29667665127503806,0.5268952777404157,0,0,0,0,0,0,64.6,-1.124,0,78.3,1.76,0.605,0,108.84,mixed,95.0,,,
2025-11-16 15:54:11.759,3.5309367179870605,0,0.2877507497716845,0.4562052496903016,0,0,0,0,0,0,64.51,-0.086,23.2,11.8,3.77,0.781,0,115.78,mixed,95.0,,,
2025-11-16 15:54:12.759,3.546250343322754,0,0.2877507497716845,0.4562052496903016,0,0,0,0,0,0,65.3,0.794,56.5,0.0,12.96,0.664,0,126.06,mixed,95.0,,,
2025-11-16 15:54:13.759,3.549400806427002,0,0.2877507497716845,0.4562052496903016,0,0,0,0,0,0,66.34,1.04,28.7,6.8,9.45,0.613,0,118.15,mixed,95.0,,,
2025-11-16 15:54:14.759,3.5648345947265625,0,0.2877507497716845,0.4562052496903016,0,0,0,0,0,0,66.7,0.361,41.5,8.9,9.82,0.542,0,122.12,mixed,95.0,,,
2025-11-16 15:54:15.759,3.5796608924865723,0,0.2877507497716845,0.4562052496903016,0,0,0,0,0,0,64.85,-1.857,0,90.7,27.58,0.497,0,108.94,mixed,95.0,,,
2025-11-16 15:54:16.759,3.5954837799072266,0,0.2877507497716845,0.4562052496903016,0,0,0,0,0,0,64.9,0.056,35.6,2.5,20.74,0.657,0,119.63,mixed,95.0,,,
2025-11-16 15:54:17.759,3.611168384552002,0,0.2877507497716845,0.4562052496903016,0,0,0,0,0,0,65.5,0.594,38.1,0.3,1.5,0.643,0,120.64,mixed,95.0,,,
2025-11-16 15:54:18.759,3.6272079944610596,0,0.2877507497716845,0.4562052496903016,0,0,0,0,0,0,67.91,2.41,28.4,0.0,3.93,0.62,0,118.69,mixed,95.0,,,
2025-11-16 15:54:19.759,3.643146514892578,0,0.2877507497716845,0.4562052496903016,0,0,0,0,0,0,67.63,-0.276,30.5,12.6,17.13,0.524,0,119.19,mixed,95.0,,,
2025-11-16 15:54:20.759,3.6590778827667236,0,0.2877507497716845,0.4562052496903016,0,0,0,0,0,0,67.09,-0.545,0,39.2,-2.24,0.583,0,109.83,mixed,95.0,,,
2025-11-16 15:54:21.759,3.6631407737731934,0,0.2877507497716845,0.4562052496903016,0,0,0,0,0,0,66.61,-0.481,0,15.9,-5.93,0.656,0,109.64,mixed,95.0,,,
2025-11-16 15:54:22.759,3.6786701679229736,0,0.2877507497716845,0.4562052496903016,0,0,0,0,0,0,66.06,-0.546,0,9.6,-16.28,0.726,0,109.42,mixed,95.0,,,
2025-11-16 15:54:23.759,3.6946604251861572,0,0.2877507497716845,0.4562052496903016,0,0,0,0,0,0,66.72,0.664,35.2,10.8,-27.21,0.57,0,120.26,mixed,95.0,,,
2025-11-16 15:54:24.759,3.711699962615967,0,0.2877507497716845,0.4562052496903016,0,0,0,0,0,0,65.84,-0.879,0,69.7,-14.7,0.666,0,109.34,mixed,95.0,,,
2025-11-16 15:54:25.759,3.7153241634368896,0,0.2877507497716845,0.4562052496903016,0,0,0,0,0,0,65.99,0.143,21.1,0.8,5.38,0.671,0,115.74,mixed,95.0,,,
2025-11-16 15:54:26.759,3.719456672668457,0,0.2877507497716845,0.4562052496903016,0,0,0,0,0,0,66.5,0.517,47.1,3.3,3.44,0.641,0,123.72,mixed,95.0,,,
2025-11-16 15:54:27.759,3.730818271636963,0,0.2877507497716845,0.4562052496903016,0,0,0,0,0,0,68.56,2.057,41.1,2.2,-18.35,0.593,0,122.76,mixed,95.0,,,
2025-11-16 15:54:28.759,3.746574878692627,0,0.2877507497716845,0.4562052496903016,0,0,0,0,0,0,67.94,-0.625,0,41.3,-13.61,0.56,0,110.17,mixed,95.0,,,
2025-11-16 15:54:29.759,3.7626516819000244,0,0.2877507497716845,0.4562052496903016,0,0,0,0,0,0,68.23,0.291,51.4,1.1,-19.05,0.655,0,125.71,mixed,95.0,,,
2025-11-16 15:54:30.759,3.7783355712890625,0,0.2877507497716845,0.4562052496903016,0,0,0,0,0,0,67.83,-0.394,31.2,5.7,-4.2,0.517,0,119.5,mixed,95.0,,,
2025-11-16 15:54:31.759,3.7944161891937256,0,0.2877507497716845,0.4562052496903016,0,0,0,0,0,0,69.41,1.58,51.8,9.2,-5.45,0.67,0,126.32,mixed,95.0,,,
2025-11-16 15:54:32.759,3.80964732170105,0,0.2877507497716845,0.4562052496903016,0,0,0,0,0,0,69.62,0.203,49.2,1.1,-9.41,0.616,0,125.61,mixed,95.0,,,
2025-11-16 15:54:33.759,3.8255417346954346,0,0.2877507497716845,0.4562052496903016,0,0,0,0,0,0,69.1,-0.512,0,27.7,-8.83,0.65,0,110.64,mixed,95.0,,,
2025-11-16 15:54:34.759,3.841343879699707,0,0.2877507497716845,0.4562052496903016,0,0,0,0,0,0,68.38,-0.72,0,52.5,-15.12,0.776,0,110.35,mixed,95.0,,,
2025-11-16 15:54:35.759,3.857111930847168,0,0.2877507497716845,0.4562052496903016,0,0,0,0,0,0,68.92,0.539,54.1,0.0,-1.53,0.7,0,126.79,mixed,95.0,,,
2025-11-16 15:54:36.759,3.8631069660186768,0,0.2877507497716845,0.4562052496903016,0,0,0,0,0,0,69.24,0.312,42.3,9.3,1.2,0.65,0,123.37,mixed,95.0,,,
2025-11-16 15:54:37.759,3.879369020462036,0,0.2877507497716845,0.4562052496903016,0,0,0,0,0,0,71.85,2.618,31.1,11.6,-12.78,0.519,0,141.06,mixed,85.0,,,
2025-11-16 15:54:38.759,3.8821909427642822,0,0.2877507497716845,0.4562052496903016,0,0,0,0,0,0,72.28,0.424,43.8,5.1,-6.15,0.579,0,125.04,mixed,100,,,
2025-11-16 15:54:39.759,3.897643804550171,0,0.2877507497716845,0.4562052496903016,0,0,0,0,0,0,71.86,-0.414,39.0,5.9,-14.08,0.624,0,123.44,mixed,100,,,
2025-11-16 15:54:40.759,3.913621664047241,0,0.2877507497716845,0.4562052496903016,0,0,0,0,0,0,71.27,-0.593,0,44.5,-20.6,0.589,0,111.51,mixed,100,,,
2025-11-16 15:54:41.759,3.9298055171966553,0,0.2877507497716845,0.4562052496903016,0,0,0,0,0,0,71.24,-0.03,28.9,7.3,-25.15,0.507,0,120.16,mixed,100,,,
2025-11-16 15:54:42.759,3.9331040382385254,0,0.2877507497716845,0.4562052496903016,0,0,0,0,0,0,71.37,0.134,38.1,15.1,-20.9,0.527,0,122.99,mixed,100,,,
2025-11-16 15:54:43.759,3.9396605491638184,0,0.2877507497716845,0.4562052496903016,0,0,0,0,0,0,72.11,0.739,43.6,1.5,-8.27,0.633,0,124.92,mixed,100,,,
2025-11-16 15:54:44.759,3.9495062828063965,0,0.2877507497716845,0.4562052496903016,0,0,0,0,0,0,71.78,-0.337,21.6,11.5,-7.03,0.633,0,118.18,mixed,100,,,
2025-11-16 15:54:45.759,3.9653775691986084,0,0.2877507497716845,0.4562052496903016,0,0,0,0,0,0,72.33,0.553,49.2,0.0,6.93,0.616,0,126.71,mixed,100,,,
2025-11-16 15:54:46.759,3.981362819671631,0,0.2877507497716845,0.4562052496903016,0,0,0,0,0,0,74.41,2.08,48.4,7.1,5.93,0.564,0,127.28,mixed,100,,,
2025-11-16 15:54:47.759,3.9969966411590576,0,0.2877507497716845,0.4562052496903016,0,0,0,0,0,0,75.08,0.667,33.1,12.5,4.53,0.635,0,122.96,mixed,100,,,
2025-11-16 15:54:48.759,4.012743711471558,0,0.2877507497716845,0.4562052496903016,0,0,0,0,0,0,74.17,-0.903,0,56.9,-7.46,0.61,0,112.67,mixed,100,,,
2025-11-16 15:54:49.759,4.029856204986572,0,0.2877507497716845,0.4562052496903016,0,0,0,0,0,0,76.22,2.05,28.7,5.7,13.95,0.558,0,122.09,mixed,100,,,
2025-11-16 15:54:50.759,4.037732839584351,0,0.2877507497716845,0.4562052496903016,0,0,0,0,0,0,76.39,0.168,46.3,7.3,5.12,0.585,0,127.43,mixed,100,,,
2025-11-16 15:54:51.759,4.049597978591919,0,0.2877507497716845,0.4562052496903016,0,0,0,0,0,0,75.6,-0.791,0,54.1,3.77,0.639,0,113.24,mixed,100,,,
2025-11-16 15:54:52.759,4.064422607421875,0,0.2877507497716845,0.4562052496903016,0,0,0,0,0,0,74.37,-1.225,0,89.9,-3.57,0.613,0,112.75,mixed,100,,,
2025-11-16 15:54:53.759,4.080799102783203,0,0.2877507497716845,0.4562052496903016,0,0,0,0,0,0,73.97,-0.402,25.5,2.2,-5.12,0.644,0,120.23,mixed,100,,,
2025-11-16 15:54:54.759,4.083398103713989,0,0.2877507497716845,0.4562052496903016,0,0,0,0,0,0,73.51,-0.459,0,21.0,-11.48,0.608,0,112.41,mixed,100,,,
2025-11-16 15:54:55.759,4.0988569259643555,0,0.2877507497716845,0.4562052496903016,0,0,0,0,0,0,72.95,-0.56,0,23.3,-12.52,0.669,0,112.18,mixed,100,,,
2025-11-16 15:54:56.759,4.115143060684204,0,0.2877507497716845,0.4562052496903016,0,0,0,0,0,0,74.71,1.76,21.1,11.5,-16.32,0.553,0,119.21,mixed,100,,,
2025-11-16 15:54:57.759,4.131168603897095,0,0.2877507497716845,0.4562052496903016,0,0,0,0,0,0,75.4,0.686,16.1,0.0,-13.43,0.587,0,118.0,mixed,100,,,
2025-11-16 15:54:58.759,4.147258043289185,0,0.2877507497716845,0.4562052496903016,0,0,0,0,0,0,75.0,-0.399,41.5,3.7,-9.31,0.536,0,125.44,mixed,100,,,
2025-11-16 15:54:59.759,4.1629087924957275,0,0.2877507497716845,0.4562052496903016,0,0,0,0,0,0,75.35,0.352,39.7,2.6,8.8,0.678,0,125.04,mixed,100,,,
2025-11-16 15:55:00.759,4.178055286407471,0,0.2877507497716845,0.4562052496903016,0,0,0,0,0,0,73.89,-1.461,0,100.0,-0.35,0.597,0,112.56,mixed,100,,,
2025-11-16 15:55:01.759,4.194089889526367,0,0.2877507497716845,0.4562052496903016,0,0,0,0,0,0,75.34,1.444,49.4,11.5,-9.62,0.629,0,127.96,mixed,100,,,
2025-11-16 15:55:02.759,4.2094666957855225,0,0.2877507497716845,0.4562052496903016,0,0,0,0,0,0,75.71,0.371,48.5,9.4,-11.42,0.637,0,127.82,mixed,100,,,
2025-11-16 15:55:03.759,4.2149882316589355,0,0.2877507497716845,0.4562052496903016,0,0,0,0,0,0,73.84,-1.867,0,100.0,-5.54,0.555,0,112.54,mixed,100,,,
2025-11-16 15:55:04.759,4.2297680377960205,0,0.2877507497716845,0.4562052496903016,0,0,0,0,0,0,74.37,0.527,34.9,0.0,-27.47,0.638,0,123.22,mixed,100,,,
2025-11-16 15:55:05.759,4.247095108032227,0,0.2877507497716845,0.4562052496903016,0,0,0,0,0,0,74.18,-0.188,40.2,13.0,-21.27,0.609,0,124.74,mixed,100,,,
2025-11-16 15:55:06.759,4.263002872467041,0,0.2877507497716845,0.4562052496903016,0,0,0,0,0,0,72.45,-1.732,0,100.0,-12.83,0.365,0,111.98,mixed,100,,,
2025-11-16 15:55:07.759,4.279059886932373,0,0.2877507497716845,0.4562052496903016,0,0,0,0,0,0,71.17,-1.28,0,87.3,-8.85,0.702,0,111.47,mixed,100,,,
2025-11-16 15:55:08.759,4.294905662536621,0,0.2877507497716845,0.4562052496903016,0,0,0,0,0,0,70.93,-0.238,41.2,10.5,-19.98,0.659,0,123.72,mixed,100,,,
2025-11-16 15:55:09.759,4.3125433921813965,0,0.2530864685816256,0.3414226401579958,0,0,0,0,0,0,70.39,-0.536,0,23.1,-10.79,0.462,0,111.16,mixed,100,,,
2025-11-16 15:55:10.759,4.328554391860962,0,0.2530864685816256,0.3414226401579958,0,0,0,0,0,0,72.4,2.01,51.0,13.4,-9.75,0.616,0,127.26,mixed,100,,,
2025-11-16 15:55:11.759,4.345453977584839,0,0.2530864685816256,0.3414226401579958,0,0,0,0,0,0,72.45,0.042,44.1,12.5,-14.02,0.791,0,125.21,mixed,100,,,
2025-11-16 15:55:12.759,4.349450588226318,0,0.2530864685816256,0.3414226401579958,0,0,0,0,0,0,72.76,0.31,15.1,5.1,-22.47,0.599,0,116.64,mixed,100,,,
2025-11-16 15:55:13.759,4.363144636154175,0,0.2530864685816256,0.3414226401579958,0,0,0,0,0,0,72.53,-0.23,30.8,7.7,-21.11,0.61,0,121.24,mixed,100,,,
2025-11-16 15:55:14.759,4.378916501998901,0,0.2530864685816256,0.3414226401579958,0,0,0,0,0,0,73.16,0.63,43.8,6.7,-24.02,0.632,0,125.41,mixed,100,,,
2025-11-16 15:55:15.759,4.38165545463562,0,0.2530864685816256,0.3414226401579958,0,0,0,0,0,0,72.69,-0.465,0,6.1,-11.39,0.717,0,112.08,mixed,100,,,
2025-11-16 15:55:16.759,4.396677494049072,0,0.2530864685816256,0.3414226401579958,0,0,0,0,0,0,71.33,-1.358,0,76.2,-20.13,0.563,0,111.53,mixed,100,,,
2025-11-16 15:55:17.759,4.4137959480285645,0,0.2530864685816256,0.3414226401579958,0,0,0,0,0,0,71.25,-0.085,22.1,11.7,-25.83,0.732,0,118.12,mixed,100,,,
2025-11-16 15:55:18.759,4.429417371749878,0,0.2530864685816256,0.3414226401579958,0,0,0,0,0,0,70.58,-0.666,0,39.6,-12.52,0.586,0,111.23,mixed,100,,,
2025-11-16 15:55:19.759,4.433346271514893,0,0.2530864685816256,0.3414226401579958,0,0,0,0,0,0,70.36,-0.224,29.6,9.0,0.2,0.621,0,120.04,mixed,100,,,
2025-11-16 15:55:20.759,4.448525428771973,0,0.2530864685816256,0.3414226401579958,0,0,0,0,0,0,69.52,-0.84,0,46.4,12.08,0.712,0,110.81,mixed,95.0,,,
2025-11-16 15:55:21.759,4.4649341106414795,0,0.23362032423941712,0.33093034594915377,0,0,0,0,0,0,68.44,-1.08,0,77.1,25.3,0.638,0,110.38,mixed,95.0,,,
2025-11-16 15:55:22.759,4.480967998504639,0,0.23362032423941712,0.33093034594915377,0,0,0,0,0,0,68.66,0.221,31.8,9.1,24.62,0.64,0,119.99,mixed,95.0,,,
2025-11-16 15:55:23.759,4.495619058609009,0,0.23362032423941712,0.33093034594915377,0,0,0,0,0,0,69.35,0.689,22.9,9.8,45.0,0.417,0,117.62,mixed,95.0,,,
2025-11-16 15:55:24.759,4.512481927871704,0,0.23362032423941712,0.33093034594915377,0,0,0,0,0,0,68.94,-0.408,30.9,8.6,32.84,0.598,0,119.85,mixed,95.0,,,
2025-11-16 15:55:25.759,4.528193473815918,0,0.23362032423941712,0.33093034594915377,0,0,0,0,0,0,69.39,0.45,24.6,7.5,13.23,0.609,0,118.12,mixed,95.0,,,
2025-11-16 15:55:26.759,4.544307231903076,0,0.23362032423941712,0.33093034594915377,0,0,0,0,0,0,70.27,0.876,19.1,3.7,14.71,0.623,0,116.82,mixed,100,,,
2025-11-16 15:55:27.759,4.547327518463135,0,0.23362032423941712,0.33093034594915377,0,0,0,0,0,0,71.31,1.042,47.1,11.4,14.63,0.62,0,125.65,mixed,100,,,
2025-11-16 15:55:28.759,4.563251972198486,0,0.23362032423941712,0.33093034594915377,0,0,0,0,0,0,71.12,-0.192,26.6,6.3,16.42,0.565,0,119.41,mixed,100,,,
2025-11-16 15:55:29.759,4.579614877700806,0,0.23362032423941712,0.33093034594915377,0,0,0,0,0,0,68.09,-3.022,0,97.3,8.77,0.636,0,120.24,mixed,83.0,,,
2025-11-16 15:55:30.759,4.59561824798584,0,0.23362032423941712,0.33093034594915377,0,0,0,0,0,0,67.78,-0.314,26.5,6.1,6.72,0.622,0,118.05,mixed,95.0,,,
2025-11-16 15:55:31.759,4.61129355430603,0,0.23362032423941712,0.33093034594915377,0,0,0,0,0,0,67.97,0.19,40.1,6.1,13.49,0.652,0,122.23,mixed,95.0,,,
2025-11-16 15:55:32.759,4.62738037109375,0,0.23362032423941712,0.33093034594915377,0,0,0,0,0,0,68.69,0.72,68.2,10.6,27.06,0.658,0,130.92,mixed,95.0,,,
2025-11-16 15:55:33.759,4.629776477813721,0,0.23362032423941712,0.33093034594915377,0,0,0,0,0,0,68.68,-0.015,27.2,16.0,24.22,0.642,0,118.62,mixed,95.0,,,
2025-11-16 15:55:34.759,4.645601749420166,0,0.23362032423941712,0.33093034594915377,0,0,0,0,0,0,66.52,-2.158,0,100.0,36.34,0.629,0,109.61,mixed,95.0,,,
2025-11-16 15:55:35.759,4.661254167556763,0,0.23362032423941712,0.33093034594915377,0,0,0,0,0,0,65.67,-0.843,0,73.2,35.67,0.395,0,109.27,mixed,95.0,,,
2025-11-16 15:55:36.759,4.676913022994995,0,0.23362032423941712,0.33093034594915377,0,0,0,0,0,0,65.18,-0.494,0,41.9,45.0,0.548,0,109.07,mixed,95.0,,,
2025-11-16 15:55:37.759,4.679425001144409,0,0.23362032423941712,0.33093034594915377,0,0,0,0,0,0,63.79,-1.395,0,100.0,45.0,0.523,0,108.51,mixed,95.0,,,
2025-11-16 15:55:38.759,4.694999933242798,0,0.23362032423941712,0.33093034594915377,0,0,0,0,0,0,62.37,-1.41,0,95.2,35.78,0.723,0,107.95,mixed,95.0,,,
2025-11-16 15:55:39.759,4.711248159408569,0,0.23362032423941712,0.33093034594915377,0,0,0,0,0,0,64.37,1.996,13.2,1.7,32.5,0.506,0,112.72,mixed,95.0,,,
2025-11-16 15:55:40.759,4.716272354125977,0,0.23362032423941712,0.33093034594915377,0,0,0,0,0,0,65.54,1.172,22.9,11.7,45.0,0.69,0,116.09,mixed,95.0,,,
2025-11-16 15:55:41.759,4.7322447299957275,0,0.23362032423941712,0.33093034594915377,0,0,0,0,0,0,66.27,0.726,29.9,2.3,45.0,0.549,0,118.48,mixed,95.0,,,
2025-11-16 15:55:42.759,4.747201442718506,0,0.23362032423941712,0.33093034594915377,0,0,0,0,0,0,68.01,1.747,57.7,2.4,31.18,0.608,0,127.52,mixed,95.0,,,
2025-11-16 15:55:43.759,4.76302170753479,0,0.23362032423941712,0.33093034594915377,0,0,0,0,0,0,67.82,-0.195,7.2,3.0,26.15,0.638,0,112.27,mixed,95.0,,,
2025-11-16 15:55:44.759,4.7790093421936035,0,0.23362032423941712,0.33093034594915377,0,0,0,0,0,0,69.02,1.204,75.4,12.2,26.74,0.42,0,133.23,mixed,95.0,,,
2025-11-16 15:55:45.759,4.789806365966797,0,0.23362032423941712,0.33093034594915377,0,0,0,0,0,0,67.08,-1.941,0,92.2,28.38,0.618,0,109.83,mixed,95.0,,,
2025-11-16 15:55:46.759,4.795511960983276,0,0.23362032423941712,0.33093034594915377,0,0,0,0,0,0,67.63,0.548,29.7,2.7,5.77,0.771,0,118.95,mixed,95.0,,,
2025-11-16 15:55:47.759,4.811694145202637,0,0.23362032423941712,0.33093034594915377,0,0,0,0,0,0,69.67,2.036,37.0,0.0,4.23,0.57,0,121.97,mixed,95.0,,,
2025-11-16 15:55:48.759,4.828011751174927,0,0.23362032423941712,0.33093034594915377,0,0,0,0,0,0,68.62,-1.048,0,59.1,5.96,0.657,0,110.45,mixed,95.0,,,
2025-11-16 15:55:49.759,4.835563659667969,0,0.23362032423941712,0.33093034594915377,0,0,0,0,0,0,68.98,0.358,28.6,1.2,0.17,0.65,0,119.16,mixed,95.0,,,
2025-11-16 15:55:50.759,4.851384401321411,0,0.23362032423941712,0.33093034594915377,0,0,0,0,0,0,69.57,0.592,40.2,0.0,0.13,0.64,0,122.9,mixed,95.0,,,
2025-11-16 15:55:51.759,4.8671042919158936,0,0.23362032423941712,0.33093034594915377,0,0,0,0,0,0,69.88,0.308,36.5,11.1,-6.98,0.606,0,121.91,mixed,95.0,,,
2025-11-16 15:55:52.759,4.8831071853637695,0,0.23362032423941712,0.33093034594915377,0,0,0,0,0,0,70.29,0.41,28.7,5.9,1.66,0.668,0,119.72,mixed,100,,,
2025-11-16 15:55:53.759,4.897467136383057,0,0.23362032423941712,0.33093034594915377,0,0,0,0,0,0,71.79,1.505,31.6,5.8,19.01,0.65,0,121.19,mixed,100,,,
2025-11-16 15:55:54.759,4.913137435913086,0,0.23362032423941712,0.33093034594915377,0,0,0,0,0,0,73.31,1.518,45.3,11.1,19.46,0.605,0,125.92,mixed,100,,,
2025-11-16 15:55:55.759,4.916837215423584,0,0.23362032423941712,0.33093034594915377,0,0,0,0,0,0,74.03,0.717,58.2,0.0,9.36,0.623,0,130.07,mixed,100,,,
2025-11-16 15:55:56.759,4.932691812515259,0,0.23362032423941712,0.33093034594915377,0,0,0,0,0,0,76.97,2.94,55.0,6.3,18.8,0.56,0,150.3,mixed,85.0,,,
2025-11-16 15:55:57.759,4.94745659828186,0,0.23362032423941712,0.33093034594915377,0,0,0,0,0,0,75.96,-1.01,0,60.2,19.5,0.612,0,113.38,mixed,100,,,
2025-11-16 15:55:58.759,4.963177919387817,0,0.23362032423941712,0.33093034594915377,0,0,0,0,0,0,75.89,-0.065,44.3,5.5,19.2,0.608,0,126.66,mixed,100,,,
2025-11-16 15:55:59.759,4.979394912719727,0,0.23362032423941712,0.33093034594915377,0,0,0,0,0,0,75.14,-0.752,0,45.3,28.26,0.69,0,113.06,mixed,100,,,
2025-11-16 15:56:00.759,4.983936786651611,0,0.23362032423941712,0.33093034594915377,0,0,0,0,0,0,73.11,-2.034,0,100.0,36.26,0.608,0,112.24,mixed,100,,,
2025-11-16 15:56:01.759,4.999780893325806,0,0.23362032423941712,0.33093034594915377,0,0,0,0,0,0,72.7,-0.401,59.9,11.8,28.18,0.718,0,130.04,mixed,100,,,
2025-11-16 15:56:02.759,5.015687704086304,0,0.23362032423941712,0.33093034594915377,0,0,0,0,0,0,71.32,-1.38,0,83.5,25.92,0.687,0,111.53,mixed,100,,,
2025-11-16 15:56:03.759,5.031443119049072,0,0.23362032423941712,0.33093034594915377,0,0,0,0,0,0,68.99,-2.334,0,100.0,30.41,0.576,0,110.6,mixed,95.0,,,
2025-11-16 15:56:04.759,5.047571897506714,0,0.23362032423941712,0.33093034594915377,0,0,0,0,0,0,71.34,2.352,40.8,0.0,26.94,0.507,0,123.78,mixed,100,,,
2025-11-16 15:56:05.759,5.06362771987915,0,0.23362032423941712,0.33093034594915377,0,0,0,0,0,0,71.75,0.411,50.5,0.0,6.7,0.648,0,126.84,mixed,100,,,
2025-11-16 15:56:06.759,5.079674959182739,0,0.23362032423941712,0.33093034594915377,0,0,0,0,0,0,72.0,0.25,70.6,0.0,-5.76,0.735,0,132.99,mixed,100,,,
2025-11-16 15:56:07.759,5.0826568603515625,0,0.23362032423941712,0.33093034594915377,0,0,0,0,0,0,73.87,1.866,60.0,7.7,-12.98,0.624,0,130.54,mixed,100,,,
2025-11-16 15:56:08.759,5.084760904312134,0,0.23362032423941712,0.33093034594915377,0,0,0,0,0,0,74.56,0.693,53.9,4.3,-7.79,0.528,0,129.01,mixed,100,,,
2025-11-16 15:56:09.759,5.090755462646484,0,0.23362032423941712,0.33093034594915377,0,0,0,0,0,0,75.15,0.585,66.7,0.0,2.9,0.625,0,133.07,mixed,100,,,
2025-11-16 15:56:10.759,5.09666109085083,0,0.23362032423941712,0.33093034594915377,0,0,0,0,0,0,74.35,-0.797,0,60.0,8.09,0.575,0,112.74,mixed,100,,,
2025-11-16 15:56:11.759,5.098620891571045,0,0.23362032423941712,0.33093034594915377,0,0,0,0,0,0,74.3,-0.049,36.0,6.3,19.77,0.589,0,123.52,mixed,100,,,
2025-11-16 15:56:12.759,5.11379861831665,0,0.23362032423941712,0.33093034594915377,0,0,0,0,0,0,76.16,1.856,39.3,0.0,24.01,0.627,0,125.26,mixed,100,,,
2025-11-16 15:56:13.759,5.115971565246582,0,0.23362032423941712,0.33093034594915377,0,0,0,0,0,0,76.03,-0.124,32.1,0.0,18.38,0.587,0,123.03,mixed,100,,,
2025-11-16 15:56:14.759,5.131536960601807,0,0.23362032423941712,0.33093034594915377,0,0,0,0,0,0,78.33,2.298,44.2,0.5,10.51,0.644,0,127.59,mixed,100,,,
2025-11-16 15:56:15.759,5.13856315612793,0,0.23362032423941712,0.33093034594915377,0,0,0,0,0,0,77.8,-0.529,0,43.7,5.59,0.515,0,114.12,mixed,100,,,
2025-11-16 15:56:16.759,5.154292583465576,0,0.23362032423941712,0.33093034594915377,0,0,0,0,0,0,77.61,-0.193,25.4,10.7,11.65,0.604,0,121.65,mixed,100,,,
2025-11-16 15:56:17.759,5.169485807418823,0,0.23362032423941712,0.33093034594915377,0,0,0,0,0,0,75.48,-2.131,0,89.2,-7.5,0.706,0,113.19,mixed,100,,,
2025-11-16 15:56:18.759,5.185325860977173,0,0.23362032423941712,0.33093034594915377,0,0,0,0,0,0,76.04,0.569,65.6,8.5,-16.52,0.585,0,133.09,mixed,100,,,
2025-11-16 15:56:19.759,5.20128321647644,0,0.23362032423941712,0.33093034594915377,0,0,0,0,0,0,73.34,-2.707,0,100.0,-4.62,0.548,0,122.33,mixed,88.0,,,
2025-11-16 15:56:20.759,5.217379093170166,0,0.23362032423941712,0.33093034594915377,0,0,0,0,0,0,72.46,-0.877,0,69.8,-17.12,0.63,0,111.98,mixed,100,,,
2025-11-16 15:56:21.759,5.23318886756897,0,0.23362032423941712,0.33093034594915377,0,0,0,0,0,0,70.95,-1.509,0,100.0,-33.79,0.488,0,111.38,mixed,100,,,
2025-11-16 15:56:22.759,5.248929977416992,0,0.23362032423941712,0.33093034594915377,0,0,0,0,0,0,72.21,1.256,5.1,21.0,-21.94,0.632,0,113.42,mixed,100,,,
2025-11-16 15:56:23.759,5.264346599578857,0,0.23362032423941712,0.33093034594915377,0,0,0,0,0,0,72.02,-0.184,25.6,6.9,-19.5,0.515,0,119.48,mixed,100,,,
2025-11-16 15:56:24.759,5.279676675796509,0,0.23362032423941712,0.33093034594915377,0,0,0,0,0,0,72.14,0.116,18.0,0.0,2.65,0.657,0,117.27,mixed,100,,,
2025-11-16 15:56:25.759,5.296473264694214,0,0.23362032423941712,0.33093034594915377,0,0,0,0,0,0,70.21,-1.931,0,90.1,-15.26,0.597,0,111.08,mixed,100,,,
2025-11-16 15:56:26.759,5.312438249588013,0,0.23362032423941712,0.33093034594915377,0,0,0,0,0,0,69.85,-0.355,33.9,2.5,-4.56,0.738,0,121.12,mixed,95.0,,,
2025-11-16 15:56:27.759,5.327965974807739,0,0.23362032423941712,0.33093034594915377,0,0,0,0,0,0,68.87,-0.985,0,58.7,-5.29,0.636,0,110.55,mixed,95.0,,,
2025-11-16 15:56:28.759,5.343730926513672,0,0.23362032423941712,0.33093034594915377,0,0,0,0,0,0,69.12,0.251,56.5,6.7,-0.45,0.602,0,127.59,mixed,95.0,,,
2025-11-16 15:56:29.759,5.359745264053345,0,0.23362032423941712,0.33093034594915377,0,0,0,0,0,0,69.49,0.369,26.3,8.0,7.89,0.549,0,118.68,mixed,95.0,,,
2025-11-16 15:56:30.759,5.3754189014434814,0,0.23362032423941712,0.33093034594915377,0,0,0,0,0,0,67.21,-2.28,0,97.5,9.97,0.557,0,109.88,mixed,95.0,,,
2025-11-16 15:56:31.759,5.39134407043457,0,0.23362032423941712,0.33093034594915377,0,0,0,0,0,0,66.75,-0.458,0,27.4,-11.66,0.637,0,109.7,mixed,95.0,,,
2025-11-16 15:56:32.759,5.407123327255249,0,0.23362032423941712,0.33093034594915377,0,0,0,0,0,0,66.47,-0.277,33.3,3.2,-8.35,0.681,0,119.57,mixed,95.0,,,
2025-11-16 15:56:33.759,5.412936687469482,0,0.23362032423941712,0.33093034594915377,0,0,0,0,0,0,63.65,-2.825,0,87.5,-15.19,0.667,0,118.46,mixed,83.0,,,
2025-11-16 15:56:34.759,5.416155099868774,0,0.23362032423941712,0.33093034594915377,0,0,0,0,0,0,65.59,1.946,50.7,15.3,-19.06,0.595,0,124.43,mixed,95.0,,,
2025-11-16 15:56:35.759,5.430286884307861,0,0.23362032423941712,0.33093034594915377,0,0,0,0,0,0,67.07,1.479,23.5,1.9,-15.25,0.514,0,116.88,mixed,95.0,,,
2025-11-16 15:56:36.759,5.448155403137207,0,0.23362032423941712,0.33093034594915377,0,0,0,0,0,0,65.6,-1.478,0,100.0,1.85,0.578,0,109.24,mixed,95.0,,,
2025-11-16 15:56:37.759,5.4513397216796875,0,0.23362032423941712,0.33093034594915377,0,0,0,0,0,0,66.94,1.338,29.0,9.4,-6.14,0.566,0,118.49,mixed,95.0,,,
2025-11-16 15:56:38.759,5.467024087905884,0,0.23362032423941712,0.33093034594915377,0,0,0,0,0,0,65.13,-1.806,0,100.0,5.93,0.537,0,109.05,mixed,95.0,,,
2025-11-16 15:56:39.759,5.480821132659912,0,0.23362032423941712,0.33093034594915377,0,0,0,0,0,0,64.96,-0.167,17.9,7.2,7.94,0.64,0,114.37,mixed,95.0,,,
2025-11-16 15:56:40.759,5.496762275695801,0,0.23362032423941712,0.33093034594915377,0,0,0,0,0,0,66.99,2.032,45.0,8.3,10.78,0.68,0,123.31,mixed,95.0,,,
2025-11-16 15:56:41.759,5.512459993362427,0,0.23362032423941712,0.33093034594915377,0,0,0,0,0,0,66.21,-0.783,0,50.9,26.16,0.677,0,109.48,mixed,95.0,,,
2025-11-16 15:56:42.759,5.528384208679199,0,0.23362032423941712,0.33093034594915377,0,0,0,0,0,0,66.53,0.323,52.7,5.5,15.67,0.689,0,125.42,mixed,95.0,,,
2025-11-16 15:56:43.759,5.544052362442017,0,0.23362032423941712,0.33093034594915377,0,0,0,0,0,0,67.73,1.196,22.5,0.0,17.44,0.592,0,116.83,mixed,95.0,,,
2025-11-16 15:56:44.759,5.546382188796997,0,0.23362032423941712,0.33093034594915377,0,0,0,0,0,0,66.99,-0.738,0,53.9,6.27,0.519,0,109.8,mixed,95.0,,,
2025-11-16 15:56:45.759,5.562056303024292,0,0.23362032423941712,0.33093034594915377,0,0,0,0,0,0,66.11,-0.887,0,58.1,3.23,0.629,0,109.44,mixed,95.0,,,
