timestamp,elapsed_seconds,fatigue_score,eye_ratio,mouth_ratio,pitch_deg,yaw_deg,roll_deg,yawn_count,eye_closed_flag,head_down_flag,speed_kmh,acceleration_ms2,throttle_percent,brake_percent,steering_angle_deg,steering_grip,driving_fatigue_level,co2_rate_g_per_km,mode,eco_score,event_type,event_severity,recommendation
2025-11-16 15:46:44.273,0.0,0,0.3,0.3,0,0,0,0,0,0,4.7,4.701,60.3,0.1,-1.1,0.713,0,122.96,mixed,80.0,,,
2025-11-16 15:46:45.273,0.009086847305297852,0,0.3,0.3,0,0,0,0,0,0,7.48,2.778,63.7,3.9,0.46,0.673,0,125.09,mixed,80.0,,,
2025-11-16 15:46:46.273,0.024868011474609375,0,0.3,0.3,0,0,0,0,0,0,10.15,2.67,62.9,4.0,4.98,0.774,0,125.93,mixed,80.0,,,
2025-11-16 15:46:47.273,0.04204726219177246,0,0.3,0.3,0,0,0,0,0,0,14.18,4.034,47.9,18.2,8.46,0.754,0,123.05,mixed,80.0,,,
2025-11-16 15:46:48.273,0.0442042350769043,0,0.3,0.3,0,0,0,0,0,0,17.1,2.92,78.4,9.8,6.45,0.755,0,133.37,mixed,80.0,,,
2025-11-16 15:46:49.273,0.05896735191345215,0,0.3,0.3,0,0,0,0,0,0,19.42,2.319,47.1,1.9,10.27,0.581,0,104.89,mixed,95.0,,,
2025-11-16 15:46:50.273,0.07470417022705078,0,0.3,0.3,0,0,0,0,0,0,22.4,2.976,36.1,1.4,6.09,0.708,0,122.78,mixed,80.0,,,
2025-11-16 15:46:51.273,0.09175610542297363,0,0.3,0.3,0,0,0,0,0,0,21.3,-1.099,0,65.8,-4.63,0.687,0,91.52,mixed,95.0,,,
2025-11-16 15:46:52.273,0.10814213752746582,0,0.3,0.3,0,0,0,0,0,0,25.76,4.463,60.9,8.6,-7.74,0.726,0,131.57,mixed,80.0,,,
2025-11-16 15:46:53.273,0.1107492446899414,0,0.3,0.3,0,0,0,0,0,0,28.34,2.575,50.6,0.0,-10.2,0.622,0,129.51,mixed,80.0,,,
2025-11-16 15:46:54.273,0.12560415267944336,0,0.3,0.3,0,0,0,0,0,0,30.33,1.992,46.8,6.8,-9.32,0.702,0,109.17,mixed,95.0,,,
2025-11-16 15:46:55.273,0.14216923713684082,0,0.3,0.3,0,0,0,0,0,0,30.45,0.123,50.9,0.0,2.95,0.792,0,110.45,mixed,95.0,,,
2025-11-16 15:46:56.273,0.1582493782043457,0,0.3,0.3,0,0,0,0,0,0,32.66,2.211,69.1,13.3,-0.99,0.771,0,116.78,mixed,95.0,,,
2025-11-16 15:46:57.273,0.17583107948303223,0,0.3,0.3,0,0,0,0,0,0,33.98,1.312,75.7,0.5,-0.91,0.845,0,119.3,mixed,95.0,,,
2025-11-16 15:46:58.273,0.19198942184448242,0,0.3,0.3,0,0,0,0,0,0,35.87,1.892,74.3,8.5,-3.4,0.754,0,119.63,mixed,95.0,,,
2025-11-16 15:46:59.273,0.19431519508361816,0,0.3,0.3,0,0,0,0,0,0,38.46,2.592,65.6,6.8,-9.31,0.738,0,138.08,mixed,80.0,,,
2025-11-16 15:47:00.273,0.2099466323852539,0,0.3,0.3,0,0,0,0,0,0,40.89,2.425,53.8,0.0,-12.17,0.538,0,115.5,mixed,95.0,,,
2025-11-16 15:47:01.273,0.2256946563720703,0,0.3,0.3,0,0,0,0,0,0,41.78,0.89,71.7,2.8,-5.56,0.613,0,121.22,mixed,95.0,,,
2025-11-16 15:47:02.273,0.22861170768737793,0,0.3,0.3,0,0,0,0,0,0,44.46,2.681,77.0,9.8,-1.15,0.813,0,143.87,mixed,80.0,,,
2025-11-16 15:47:03.273,0.24348044395446777,0,0.3,0.3,0,0,0,0,0,0,43.92,-0.541,0,47.0,-1.19,0.783,0,100.57,mixed,95.0,,,
2025-11-16 15:47:04.273,0.2530517578125,0,0.3,0.3,0,0,0,0,0,0,46.89,2.978,66.5,0.0,1.58,0.695,0,141.71,mixed,80.0,,,
2025-11-16 15:47:05.273,0.2588016986846924,0,0.3,0.3,0,0,0,0,0,0,47.91,1.018,49.7,4.1,14.77,0.608,0,117.08,mixed,95.0,,,
2025-11-16 15:47:06.273,0.27629756927490234,0,0.3,0.3,0,0,0,0,0,0,48.74,0.825,56.6,8.2,17.84,0.694,0,119.47,mixed,95.0,,,
2025-11-16 15:47:07.273,0.29230284690856934,0,0.3,0.3,0,0,0,0,0,0,49.97,1.234,60.9,4.4,19.28,0.47,0,121.24,mixed,95.0,,,
2025-11-16 15:47:08.273,0.2944180965423584,0,0.3,0.3,0,0,0,0,0,0,50.13,0.157,52.8,0.0,10.34,0.798,0,118.88,mixed,95.0,,,
2025-11-16 15:47:09.273,0.30887842178344727,0,0.3,0.3,0,0,0,0,0,0,50.63,0.504,71.2,9.5,12.06,0.813,0,124.62,mixed,95.0,,,
2025-11-16 15:47:10.273,0.31272125244140625,0,0.3,0.3,0,0,0,0,0,0,51.65,1.019,55.0,7.5,14.68,0.684,0,120.17,mixed,95.0,,,
2025-11-16 15:47:11.273,0.32652950286865234,0,0.3,0.3,0,0,0,0,0,0,52.87,1.224,55.4,4.0,0.23,0.832,0,120.77,mixed,95.0,,,
2025-11-16 15:47:12.273,0.34133005142211914,0,0.3,0.3,0,0,0,0,0,0,53.26,0.386,82.6,9.6,0.34,0.675,0,129.09,mixed,87.0,,,
2025-11-16 15:47:13.273,0.3449535369873047,0,0.3,0.3,0,0,0,0,0,0,53.16,-0.105,17.2,7.7,11.21,0.793,0,109.43,mixed,95.0,,,
2025-11-16 15:47:14.273,0.35989880561828613,0,0.3,0.3,0,0,0,0,0,0,53.85,0.69,35.6,3.8,6.47,0.859,0,115.21,mixed,95.0,,,
2025-11-16 15:47:15.273,0.3759186267852783,0,0.3,0.3,0,0,0,0,0,0,56.19,2.344,49.7,3.1,10.39,0.76,0,120.37,mixed,95.0,,,
2025-11-16 15:47:16.273,0.3810896873474121,0,0.3,0.3,0,0,0,0,0,0,55.45,-0.743,0,32.7,21.76,0.649,0,105.18,mixed,95.0,,,
2025-11-16 15:47:17.273,0.39318013191223145,0,0.3,0.3,0,0,0,0,0,0,56.42,0.972,46.0,3.5,27.11,0.798,0,119.35,mixed,95.0,,,
2025-11-16 15:47:18.273,0.40819859504699707,0,0.3,0.3,0,0,0,0,0,0,58.54,2.125,71.1,13.1,14.95,0.805,0,127.74,mixed,95.0,,,
2025-11-16 15:47:19.273,0.42496275901794434,0,0.3,0.3,0,0,0,0,0,0,58.07,-0.469,41.3,11.2,11.11,0.659,0,118.62,mixed,95.0,,,
2025-11-16 15:47:20.273,0.42663049697875977,0,0.3,0.3,0,0,0,0,0,0,56.74,-1.336,0,78.9,7.79,0.753,0,105.7,mixed,95.0,,,
2025-11-16 15:47:21.273,0.4417908191680908,0,0.3,0.3,0,0,0,0,0,0,58.44,1.705,56.1,6.6,-4.28,0.77,0,123.21,mixed,95.0,,,
2025-11-16 15:47:22.273,0.44411206245422363,0,0.3,0.3,0,0,0,0,0,0,60.38,1.933,57.5,7.6,-18.36,0.729,0,124.39,mixed,95.0,,,
2025-11-16 15:47:23.273,0.4596691131591797,0,0.3,0.3,0,0,0,0,0,0,59.8,-0.58,0,27.1,-9.84,0.701,0,106.92,mixed,95.0,,,
2025-11-16 15:47:24.273,0.475571870803833,0,0.3,0.3,0,0,0,0,0,0,59.29,-0.508,0,26.1,-14.02,0.612,0,106.72,mixed,95.0,,,
2025-11-16 15:47:25.273,0.4915926456451416,0,0.3,0.3,0,0,0,0,0,0,61.12,1.835,55.5,0.4,-13.3,0.687,0,124.11,mixed,95.0,,,
2025-11-16 15:47:26.273,0.5082075595855713,0,0.3,0.3,0,0,0,0,0,0,60.33,-0.791,0,45.6,-29.94,0.61,0,107.13,mixed,95.0,,,
2025-11-16 15:47:27.273,0.5157079696655273,0,0.3,0.3,0,0,0,0,0,0,62.25,1.922,50.7,2.2,-10.21,0.816,0,123.1,mixed,95.0,,,
2025-11-16 15:47:28.273,0.5268113613128662,0,0.3,0.3,0,0,0,0,0,0,63.55,1.297,77.4,9.1,-16.49,0.76,0,131.64,mixed,95.0,,,
2025-11-16 15:47:29.273,0.542191743850708,0,0.3,0.3,0,0,0,0,0,0,64.11,0.557,85.8,1.6,-18.44,0.788,0,134.38,mixed,87.0,,,
2025-11-16 15:47:30.273,0.5590384006500244,0,0.3,0.3,0,0,0,0,0,0,62.89,-1.217,0,49.1,2.06,0.833,0,108.16,mixed,95.0,,,
2025-11-16 15:47:31.273,0.5638470649719238,0,0.3,0.3,0,0,0,0,0,0,64.34,1.451,49.3,4.8,15.32,0.647,0,123.52,mixed,95.0,,,
2025-11-16 15:47:32.273,0.5760881900787354,0,0.3,0.3,0,0,0,0,0,0,64.75,0.403,54.7,6.1,23.68,0.668,0,125.3,mixed,95.0,,,
2025-11-16 15:47:33.273,0.5915446281433105,0,0.3,0.3,0,0,0,0,0,0,65.6,0.852,50.7,5.0,24.83,0.738,0,124.46,mixed,95.0,,,
2025-11-16 15:47:34.273,0.5934410095214844,0,0.3,0.3,0,0,0,0,0,0,63.44,-2.162,0,100.0,8.34,0.677,0,108.37,mixed,95.0,,,
2025-11-16 15:47:35.273,0.6086592674255371,0,0.3,0.3,0,0,0,0,0,0,64.21,0.777,8.4,1.5,3.96,0.695,0,111.21,mixed,95.0,,,
2025-11-16 15:47:36.273,0.6248202323913574,0,0.3,0.3,0,0,0,0,0,0,65.6,1.384,46.4,0.0,20.99,0.656,0,123.15,mixed,95.0,,,
2025-11-16 15:47:37.273,0.6415436267852783,0,0.3,0.3,0,0,0,0,0,0,65.13,-0.463,24.5,5.9,16.87,0.706,0,116.39,mixed,95.0,,,
2025-11-16 15:47:38.273,0.6432075500488281,0,0.3,0.3,0,0,0,0,0,0,64.45,-0.681,0,24.2,18.53,0.648,0,108.78,mixed,95.0,,,
2025-11-16 15:47:39.273,0.6588728427886963,0,0.3,0.3,0,0,0,0,0,0,64.6,0.144,33.9,7.2,7.13,0.602,0,119.01,mixed,95.0,,,
2025-11-16 15:47:40.273,0.6745679378509521,0,0.3,0.3,0,0,0,0,0,0,64.66,0.063,55.9,5.5,13.4,0.83,0,125.64,mixed,95.0,,,
2025-11-16 15:47:41.273,0.6767847537994385,0,0.3,0.3,0,0,0,0,0,0,65.36,0.699,65.6,3.0,8.24,0.665,0,128.81,mixed,95.0,,,
2025-11-16 15:47:42.273,0.6924281120300293,0,0.3,0.3,0,0,0,0,0,0,67.08,1.722,81.7,7.4,-1.63,0.658,0,134.34,mixed,87.0,,,
2025-11-16 15:47:43.273,0.6945681571960449,0,0.3,0.3,0,0,0,0,0,0,68.15,1.064,67.7,8.0,-16.25,0.808,0,130.58,mixed,95.0,,,
2025-11-16 15:47:44.273,0.7088096141815186,0,0.3,0.3,0,0,0,0,0,0,68.77,0.627,56.3,0.0,-33.98,0.781,0,127.4,mixed,95.0,,,
2025-11-16 15:47:45.273,0.7255747318267822,0,0.3,0.3,0,0,0,0,0,0,67.03,-1.743,0,88.6,-28.76,0.809,0,109.81,mixed,95.0,,,
2025-11-16 15:47:46.273,0.7404947280883789,0,0.3,0.3,0,0,0,0,0,0,66.56,-0.474,14.2,0.1,-35.49,0.719,0,113.89,mixed,95.0,,,
2025-11-16 15:47:47.273,0.7440078258514404,0,0.3,0.3,0,0,0,0,0,0,66.79,0.231,51.5,8.8,-37.52,0.803,0,125.18,mixed,95.0,,,
2025-11-16 15:47:48.273,0.758915901184082,0,0.3,0.3,0,0,0,0,0,0,69.07,2.28,65.2,6.6,-31.59,0.659,0,130.18,mixed,95.0,,,
2025-11-16 15:47:49.273,0.7757911682128906,0,0.3,0.3,0,0,0,0,0,0,69.13,0.067,54.8,5.0,-37.06,0.687,0,127.08,mixed,95.0,,,
2025-11-16 15:47:50.273,0.7916207313537598,0,0.3,0.3,0,0,0,0,0,0,65.84,-3.297,0,83.8,-43.51,0.746,0,119.33,mixed,83.0,,,
2025-11-16 15:47:51.273,0.807866096496582,0,0.3,0.3,0,0,0,0,0,0,67.19,1.353,68.0,0.0,-41.18,0.75,0,130.29,mixed,95.0,,,
2025-11-16 15:47:52.273,0.8246245384216309,0,0.3,0.3,0,0,0,0,0,0,68.53,1.343,36.3,8.8,-43.72,0.551,0,121.3,mixed,95.0,,,
2025-11-16 15:47:53.273,0.8276596069335938,0,0.3,0.3,0,0,0,0,0,0,68.89,0.359,14.7,4.4,-36.39,0.732,0,114.98,mixed,95.0,,,
2025-11-16 15:47:54.273,0.8421838283538818,0,0.3,0.3,0,0,0,0,0,0,69.08,0.188,48.5,4.5,-30.62,0.677,0,125.17,mixed,95.0,,,
2025-11-16 15:47:55.273,0.8578219413757324,0,0.3,0.3,0,0,0,0,0,0,68.83,-0.253,10.7,8.1,-28.71,0.739,0,113.74,mixed,95.0,,,
2025-11-16 15:47:56.273,0.8755552768707275,0,0.3,0.3,0,0,0,0,0,0,67.44,-1.389,0,69.8,-34.48,0.694,0,109.97,mixed,95.0,,,
2025-11-16 15:47:57.273,0.8924233913421631,0,0.3,0.3,0,0,0,0,0,0,69.42,1.987,40.0,8.6,-38.94,0.711,0,122.76,mixed,95.0,,,
2025-11-16 15:47:58.273,0.9090638160705566,0,0.3,0.3,0,0,0,0,0,0,69.9,0.48,34.6,3.0,-25.42,0.688,0,121.33,mixed,95.0,,,
2025-11-16 15:47:59.273,0.9255938529968262,0,0.3,0.3,0,0,0,0,0,0,69.56,-0.348,23.0,17.7,-26.42,0.747,0,117.71,mixed,95.0,,,
2025-11-16 15:48:00.273,0.9423060417175293,0,0.3,0.3,0,0,0,0,0,0,71.06,1.508,44.4,6.6,-31.96,0.639,0,124.75,mixed,100,,,
2025-11-16 15:48:01.273,0.9590716361999512,0,0.3,0.3,0,0,0,0,0,0,70.2,-0.862,0,42.9,-37.57,0.711,0,111.08,mixed,100,,,
2025-11-16 15:48:02.273,0.9752554893493652,0,0.3,0.3,0,0,0,0,0,0,69.74,-0.466,26.9,11.7,-34.07,0.675,0,118.98,mixed,95.0,,,
2025-11-16 15:48:03.273,0.9924492835998535,0,0.3,0.3,0,0,0,0,0,0,66.43,-3.304,0,93.2,-26.71,0.708,0,119.57,mixed,83.0,,,
2025-11-16 15:48:04.273,1.0091066360473633,0,0.3,0.3,0,0,0,0,0,0,65.39,-1.041,0,72.6,-19.2,0.868,0,109.16,mixed,95.0,,,
2025-11-16 15:48:05.273,1.0253477096557617,0,0.3,0.3,0,0,0,0,0,0,63.78,-1.609,0,90.9,-2.28,0.669,0,108.51,mixed,95.0,,,
2025-11-16 15:48:06.273,1.030458688735962,0,0.3,0.3,0,0,0,0,0,0,62.75,-1.027,0,49.7,-6.34,0.717,0,108.1,mixed,95.0,,,
2025-11-16 15:48:07.273,1.0462744235992432,0,0.3,0.3,0,0,0,0,0,0,64.7,1.949,67.5,0.6,-5.3,0.758,0,129.12,mixed,95.0,,,
2025-11-16 15:48:08.273,1.061934232711792,0,0.3,0.3,0,0,0,0,0,0,66.76,2.055,50.3,2.7,-3.51,0.714,0,124.8,mixed,95.0,,,
2025-11-16 15:48:09.273,1.0763585567474365,0,0.3,0.3,0,0,0,0,0,0,68.22,1.467,27.1,0.3,-16.06,0.644,0,118.43,mixed,95.0,,,
2025-11-16 15:48:10.273,1.0934569835662842,0,0.3,0.3,0,0,0,0,0,0,69.27,1.049,43.6,4.6,-28.63,0.724,0,123.8,mixed,95.0,,,
2025-11-16 15:48:11.273,1.1088800430297852,0,0.3,0.3,0,0,0,0,0,0,67.9,-1.37,0,100.0,-30.58,0.812,0,110.16,mixed,95.0,,,
2025-11-16 15:48:12.273,1.1250450611114502,0,0.3,0.3,0,0,0,0,0,0,69.06,1.153,67.6,10.8,-19.05,0.796,0,130.89,mixed,95.0,,,
2025-11-16 15:48:13.273,1.141775369644165,0,0.3,0.3,0,0,0,0,0,0,68.68,-0.374,15.6,13.1,-4.35,0.693,0,115.17,mixed,95.0,,,
2025-11-16 15:48:14.273,1.1589319705963135,0,0.3,0.3,0,0,0,0,0,0,70.69,2.007,22.6,3.6,-6.14,0.69,0,118.04,mixed,100,,,
2025-11-16 15:48:15.273,1.1750421524047852,0,0.3,0.3,0,0,0,0,0,0,71.71,1.022,43.5,10.6,-15.84,0.743,0,124.74,mixed,100,,,
2025-11-16 15:48:16.273,1.1917393207550049,0,0.3,0.3,0,0,0,0,0,0,70.35,-1.366,0,88.5,-7.72,0.676,0,111.14,mixed,100,,,
2025-11-16 15:48:17.273,1.1947987079620361,0,0.3,0.3,0,0,0,0,0,0,71.76,1.412,0.0,8.0,0.18,0.752,0,111.7,mixed,100,,,
2025-11-16 15:48:18.273,1.2097783088684082,0,0.2848963240756882,0.41152705643541987,0,0,0,0,0,0,70.74,-1.018,0,44.6,7.95,0.627,0,111.3,mixed,100,,,
2025-11-16 15:48:19.273,1.2258763313293457,0,0.2848963240756882,0.41152705643541987,0,0,0,0,0,0,70.6,-0.144,37.8,6.3,7.3,0.667,0,122.58,mixed,100,,,
2025-11-16 15:48:20.273,1.2422854900360107,0,0.2848963240756882,0.41152705643541987,0,0,0,0,0,0,70.28,-0.314,24.1,5.6,-3.08,0.559,0,118.35,mixed,100,,,
2025-11-16 15:48:21.273,1.2589473724365234,0,0.2848963240756882,0.41152705643541987,0,0,0,0,0,0,72.01,1.725,60.0,4.2,-14.1,0.696,0,129.8,mixed,100,,,
2025-11-16 15:48:22.273,1.2755024433135986,0,0.2848963240756882,0.41152705643541987,0,0,0,0,0,0,73.12,1.111,43.0,0.0,-19.9,0.683,0,125.15,mixed,100,,,
2025-11-16 15:48:23.273,1.2782537937164307,0,0.2848963240756882,0.41152705643541987,0,0,0,0,0,0,73.65,0.536,45.5,0.2,-9.83,0.637,0,126.12,mixed,100,,,
2025-11-16 15:48:24.273,1.293372631072998,0,0.2848963240756882,0.41152705643541987,0,0,0,0,0,0,73.68,0.024,49.7,0.0,1.95,0.726,0,127.38,mixed,100,,,
2025-11-16 15:48:25.273,1.2963664531707764,0,0.2848963240756882,0.41152705643541987,0,0,0,0,0,0,76.97,3.291,77.7,6.3,1.82,0.762,0,157.11,mixed,85.0,,,
2025-11-16 15:48:26.273,1.3088123798370361,0,0.2848963240756882,0.41152705643541987,0,0,0,0,0,0,75.96,-1.006,0,56.1,7.86,0.658,0,113.39,mixed,100,,,
2025-11-16 15:48:27.273,1.311863660812378,0,0.2848963240756882,0.41152705643541987,0,0,0,0,0,0,76.7,0.742,77.2,8.6,0.76,0.545,0,136.84,mixed,100,,,
2025-11-16 15:48:28.273,1.3255131244659424,0,0.2848963240756882,0.41152705643541987,0,0,0,0,0,0,74.63,-2.073,0,84.6,23.24,0.687,0,112.85,mixed,100,,,
2025-11-16 15:48:29.273,1.340996503829956,0,0.2848963240756882,0.41152705643541987,0,0,0,0,0,0,74.32,-0.312,29.9,6.1,21.55,0.515,0,121.7,mixed,100,,,
2025-11-16 15:48:30.273,1.344266653060913,0,0.2848963240756882,0.41152705643541987,0,0,0,0,0,0,74.28,-0.036,22.5,8.6,15.64,0.725,0,119.45,mixed,100,,,
2025-11-16 15:48:31.273,1.3589024543762207,0,0.2848963240756882,0.41152705643541987,0,0,0,0,0,0,73.83,-0.452,35.5,2.2,36.54,0.671,0,123.19,mixed,100,,,
2025-11-16 15:48:32.273,1.3757994174957275,0,0.24740905076344838,0.420277441678588,0,0,0,0,0,0,73.67,-0.166,15.2,9.8,36.4,0.649,0,117.02,mixed,100,,,
2025-11-16 15:48:33.273,1.392526388168335,0,0.24740905076344838,0.420277441678588,0,0,0,0,0,0,74.08,0.415,44.7,0.0,35.2,0.651,0,126.03,mixed,100,,,
2025-11-16 15:48:34.273,1.4089593887329102,0,0.24740905076344838,0.420277441678588,0,0,0,0,0,0,73.87,-0.209,25.1,0.0,31.74,0.661,0,120.08,mixed,100,,,
2025-11-16 15:48:35.273,1.4255433082580566,0,0.24740905076344838,0.420277441678588,0,0,0,0,0,0,75.13,1.257,74.7,3.6,28.28,0.645,0,135.45,mixed,100,,,
2025-11-16 15:48:36.273,1.4409420490264893,0,0.24740905076344838,0.420277441678588,0,0,0,0,0,0,75.9,0.768,57.3,8.0,25.95,0.758,0,130.54,mixed,100,,,
2025-11-16 15:48:37.273,1.4433465003967285,0,0.24740905076344838,0.420277441678588,0,0,0,0,0,0,75.73,-0.163,40.3,8.3,25.27,0.744,0,125.38,mixed,100,,,
2025-11-16 15:48:38.273,1.4582762718200684,0,0.24740905076344838,0.420277441678588,0,0,0,0,0,0,75.33,-0.407,24.1,8.1,30.68,0.705,0,120.35,mixed,100,,,
2025-11-16 15:48:39.273,1.4746298789978027,0,0.24740905076344838,0.420277441678588,0,0,0,0,0,0,75.96,0.629,47.4,14.2,36.72,0.568,0,127.59,mixed,100,,,
2025-11-16 15:48:40.273,1.4913783073425293,0,0.24740905076344838,0.420277441678588,0,0,0,0,0,0,75.72,-0.236,9.7,12.8,38.54,0.57,0,116.19,mixed,100,,,
2025-11-16 15:48:41.273,1.5083012580871582,0,0.24740905076344838,0.420277441678588,0,0,0,0,0,0,77.62,1.897,88.0,0.0,42.59,0.754,0,140.45,mixed,92.0,,,
2025-11-16 15:48:42.273,1.5149195194244385,0,0.24740905076344838,0.420277441678588,0,0,0,0,0,0,80.09,2.472,57.7,4.9,27.78,0.602,0,132.36,mixed,100,,,
2025-11-16 15:48:43.273,1.528290033340454,0,0.24740905076344838,0.420277441678588,0,0,0,0,0,0,78.24,-1.847,0,100.0,38.95,0.621,0,114.3,mixed,100,,,
2025-11-16 15:48:44.273,1.5434460639953613,0,0.2543291605706677,0.39753649274232516,0,0,0,0,0,0,78.43,0.191,59.6,8.1,26.63,0.589,0,132.26,mixed,100,,,
2025-11-16 15:48:45.273,1.559281587600708,0,0.2543291605706677,0.39753649274232516,0,0,0,0,0,0,78.83,0.394,73.4,10.3,24.93,0.545,0,136.55,mixed,100,,,
2025-11-16 15:48:46.273,1.575758457183838,0,0.2543291605706677,0.39753649274232516,0,0,0,0,0,0,77.47,-1.359,0,88.2,26.08,0.638,0,113.99,mixed,100,,,
2025-11-16 15:48:47.273,1.5920279026031494,0,0.2543291605706677,0.39753649274232516,0,0,0,0,0,0,74.9,-2.566,0,96.6,28.43,0.571,0,122.96,mixed,88.0,,,
2025-11-16 15:48:48.273,1.6090948581695557,0,0.2543291605706677,0.39753649274232516,0,0,0,0,0,0,74.56,-0.345,6.0,0.0,19.29,0.765,0,114.63,mixed,100,,,
2025-11-16 15:48:49.273,1.6253769397735596,0,0.2543291605706677,0.39753649274232516,0,0,0,0,0,0,76.04,1.481,67.1,9.5,34.38,0.762,0,133.54,mixed,100,,,
2025-11-16 15:48:50.273,1.6423859596252441,0,0.2543291605706677,0.39753649274232516,0,0,0,0,0,0,74.02,-2.015,0,87.6,18.43,0.712,0,112.61,mixed,100,,,
2025-11-16 15:48:51.273,1.6579570770263672,0,0.2543291605706677,0.39753649274232516,0,0,0,0,0,0,74.3,0.282,44.5,5.0,17.31,0.649,0,126.08,mixed,100,,,
2025-11-16 15:48:52.273,1.6748390197753906,0,0.2543291605706677,0.39753649274232516,0,0,0,0,0,0,73.17,-1.131,0,66.5,5.51,0.557,0,112.27,mixed,100,,,
2025-11-16 15:48:53.273,1.6913485527038574,0,0.2543291605706677,0.39753649274232516,0,0,0,0,0,0,73.41,0.237,57.8,0.0,10.87,0.583,0,129.69,mixed,100,,,
2025-11-16 15:48:54.273,1.6957194805145264,0,0.2543291605706677,0.39753649274232516,0,0,0,0,0,0,72.45,-0.962,0,58.1,0.09,0.718,0,111.98,mixed,100,,,
2025-11-16 15:48:55.273,1.7198047637939453,0,0.2543291605706677,0.39753649274232516,0,0,0,0,0,0,73.18,0.733,58.4,0.0,-10.49,0.74,0,129.8,mixed,100,,,
2025-11-16 15:48:56.273,1.7264313697814941,0,0.2543291605706677,0.39753649274232516,0,0,0,0,0,0,73.01,-0.17,29.4,0.7,-6.02,0.683,0,121.02,mixed,100,,,
2025-11-16 15:48:57.273,1.7414486408233643,0,0.2477215331920289,0.3850649135892006,0,0,0,0,0,0,70.82,-2.192,0,100.0,-16.09,0.617,0,111.33,mixed,100,,,
2025-11-16 15:48:58.273,1.758174180984497,0,0.2477215331920289,0.3850649135892006,0,0,0,0,0,0,69.64,-1.177,0,84.4,-18.54,0.731,0,110.86,mixed,95.0,,,
2025-11-16 15:48:59.273,1.7740099430084229,0,0.2477215331920289,0.3850649135892006,0,0,0,0,0,0,69.95,0.308,69.3,10.7,0.85,0.558,0,131.77,mixed,95.0,,,
2025-11-16 15:49:00.273,1.7766194343566895,0,0.2477215331920289,0.3850649135892006,0,0,0,0,0,0,70.39,0.439,96.8,8.1,-2.24,0.724,0,140.19,mixed,92.0,,,
2025-11-16 15:49:01.273,1.7923133373260498,0,0.2477215331920289,0.3850649135892006,0,0,0,0,0,0,71.97,1.579,34.4,8.9,0.45,0.621,0,122.1,mixed,100,,,
2025-11-16 15:49:02.273,1.8096082210540771,0,0.2477215331920289,0.3850649135892006,0,0,0,0,0,0,72.02,0.048,35.0,6.5,1.63,0.673,0,122.31,mixed,100,,,
2025-11-16 15:49:03.273,1.8260726928710938,0,0.2477215331920289,0.3850649135892006,0,0,0,0,0,0,71.1,-0.912,0,33.3,-7.45,0.696,0,111.44,mixed,100,,,
2025-11-16 15:49:04.273,1.8425712585449219,0,0.2477215331920289,0.3850649135892006,0,0,0,0,0,0,70.36,-0.74,0,38.2,-8.85,0.65,0,111.15,mixed,100,,,
2025-11-16 15:49:05.273,1.8588743209838867,0,0.2477215331920289,0.3850649135892006,0,0,0,0,0,0,69.67,-0.697,0,61.3,-6.3,0.684,0,110.87,mixed,95.0,,,
2025-11-16 15:49:06.273,1.875556230545044,0,0.2477215331920289,0.3850649135892006,0,0,0,0,0,0,69.6,-0.072,28.9,3.3,-2.93,0.616,0,119.5,mixed,95.0,,,
2025-11-16 15:49:07.273,1.8779795169830322,0,0.2477215331920289,0.3850649135892006,0,0,0,0,0,0,69.12,-0.479,37.3,4.0,-7.55,0.54,0,121.83,mixed,95.0,,,
2025-11-16 15:49:08.273,1.8928108215332031,0,0.2477215331920289,0.3850649135892006,0,0,0,0,0,0,70.34,1.223,42.4,6.5,-10.72,0.705,0,123.86,mixed,100,,,
2025-11-16 15:49:09.273,1.9082484245300293,0,0.2477215331920289,0.3850649135892006,0,0,0,0,0,0,69.9,-0.44,34.0,0.0,-3.19,0.753,0,121.15,mixed,95.0,,,
2025-11-16 15:49:10.273,1.9247698783874512,0,0.23107171144460498,0.41113892671793656,0,0,0,0,0,0,69.6,-0.301,28.1,0.0,16.06,0.757,0,119.27,mixed,95.0,,,
2025-11-16 15:49:11.273,1.9270939826965332,0,0.23107171144460498,0.41113892671793656,0,0,0,0,0,0,67.85,-1.749,0,98.3,26.76,0.493,0,110.14,mixed,95.0,,,
2025-11-16 15:49:12.273,1.9424102306365967,0,0.23107171144460498,0.41113892671793656,0,0,0,0,0,0,66.61,-1.244,0,100.0,23.86,0.778,0,109.64,mixed,95.0,,,
2025-11-16 15:49:13.273,1.9579851627349854,0,0.23107171144460498,0.41113892671793656,0,0,0,0,0,0,67.59,0.986,44.6,6.9,29.44,0.567,0,123.43,mixed,95.0,,,
2025-11-16 15:49:14.273,1.9755473136901855,0,0.23107171144460498,0.41113892671793656,0,0,0,0,0,0,67.64,0.049,67.7,5.9,35.01,0.631,0,130.38,mixed,95.0,,,
2025-11-16 15:49:15.273,1.9924540519714355,0,0.23107171144460498,0.41113892671793656,0,0,0,0,0,0,66.88,-0.765,0,60.9,26.26,0.778,0,109.75,mixed,95.0,,,
2025-11-16 15:49:16.273,2.0085251331329346,0,0.23107171144460498,0.41113892671793656,0,0,0,0,0,0,67.71,0.836,75.1,9.4,29.2,0.752,0,132.62,mixed,95.0,,,
2025-11-16 15:49:17.273,2.0168659687042236,0,0.23107171144460498,0.41113892671793656,0,0,0,0,0,0,65.8,-1.912,0,100.0,15.85,0.6,0,109.32,mixed,95.0,,,
2025-11-16 15:49:18.273,2.0274627208709717,0,0.23107171144460498,0.41113892671793656,0,0,0,0,0,0,67.13,1.33,35.1,1.6,-2.97,0.499,0,120.38,mixed,95.0,,,
2025-11-16 15:49:19.273,2.0389392375946045,0,0.23107171144460498,0.41113892671793656,0,0,0,0,0,0,66.06,-1.077,0,75.3,-0.51,0.591,0,109.42,mixed,95.0,,,
2025-11-16 15:49:20.273,2.0557050704956055,0,0.23107171144460498,0.41113892671793656,0,0,0,0,0,0,63.72,-2.333,0,100.0,-4.22,0.714,0,108.49,mixed,95.0,,,
2025-11-16 15:49:21.273,2.061906099319458,0,0.23107171144460498,0.41113892671793656,0,0,0,0,0,0,64.09,0.365,52.9,3.3,-10.22,0.704,0,124.51,mixed,95.0,,,
2025-11-16 15:49:22.273,2.0765089988708496,0,0.23107171144460498,0.41113892671793656,0,0,0,0,0,0,63.59,-0.503,0,15.2,-10.43,0.712,0,108.43,mixed,95.0,,,
2025-11-16 15:49:23.273,2.0914483070373535,0,0.23107171144460498,0.41113892671793656,0,0,0,0,0,0,63.78,0.198,53.5,0.0,2.38,0.662,0,124.56,mixed,95.0,,,
2025-11-16 15:49:24.273,2.107752561569214,0,0.23107171144460498,0.41113892671793656,0,0,0,0,0,0,62.14,-1.641,0,100.0,4.69,0.673,0,107.86,mixed,95.0,,,
2025-11-16 15:49:25.273,2.1256468296051025,0,0.25029097761653085,0.41289660574180365,0,0,0,0,0,0,62.33,0.185,42.4,1.2,-7.65,0.715,0,120.64,mixed,95.0,,,
2025-11-16 15:49:26.273,2.1422219276428223,0,0.25029097761653085,0.41289660574180365,0,0,0,0,0,0,61.03,-1.302,0,94.6,2.93,0.63,0,107.41,mixed,95.0,,,
2025-11-16 15:49:27.273,2.1590235233306885,0,0.25029097761653085,0.41289660574180365,0,0,0,0,0,0,60.45,-0.576,0,33.2,6.76,0.629,0,107.18,mixed,95.0,,,
2025-11-16 15:49:28.273,2.1757216453552246,0,0.25029097761653085,0.41289660574180365,0,0,0,0,0,0,61.83,1.378,53.0,7.3,10.15,0.608,0,123.64,mixed,95.0,,,
2025-11-16 15:49:29.273,2.192244052886963,0,0.25029097761653085,0.41289660574180365,0,0,0,0,0,0,63.81,1.979,52.0,8.0,32.06,0.547,0,124.11,mixed,95.0,,,
2025-11-16 15:49:30.273,2.208958864212036,0,0.25029097761653085,0.41289660574180365,0,0,0,0,0,0,61.37,-2.435,0,95.6,34.22,0.687,0,107.55,mixed,95.0,,,
2025-11-16 15:49:31.273,2.224090099334717,0,0.25029097761653085,0.41289660574180365,0,0,0,0,0,0,61.52,0.145,37.7,8.4,31.86,0.676,0,118.93,mixed,95.0,,,
2025-11-16 15:49:32.273,2.226743698120117,0,0.25029097761653085,0.41289660574180365,0,0,0,0,0,0,62.49,0.972,25.1,3.9,15.94,0.826,0,115.52,mixed,95.0,,,
2025-11-16 15:49:33.273,2.242149829864502,0,0.25029097761653085,0.41289660574180365,0,0,0,0,0,0,62.25,-0.242,30.8,8.2,9.81,0.72,0,117.13,mixed,95.0,,,
2025-11-16 15:49:34.273,2.2580366134643555,0,0.25029097761653085,0.41289660574180365,0,0,0,0,0,0,63.52,1.274,37.8,4.5,-1.7,0.53,0,119.75,mixed,95.0,,,
2025-11-16 15:49:35.273,2.2622203826904297,0,0.25029097761653085,0.41289660574180365,0,0,0,0,0,0,64.76,1.235,55.7,2.4,2.9,0.587,0,125.6,mixed,95.0,,,
2025-11-16 15:49:36.273,2.276174306869507,0,0.25029097761653085,0.41289660574180365,0,0,0,0,0,0,63.93,-0.821,0,56.0,1.49,0.544,0,108.57,mixed,95.0,,,
2025-11-16 15:49:37.273,2.2912864685058594,0,0.25029097761653085,0.41289660574180365,0,0,0,0,0,0,63.67,-0.26,18.5,0.6,4.54,0.624,0,114.01,mixed,95.0,,,
2025-11-16 15:49:38.273,2.2933437824249268,0,0.25029097761653085,0.41289660574180365,0,0,0,0,0,0,65.48,1.801,33.0,5.4,-5.44,0.717,0,119.09,mixed,95.0,,,
2025-11-16 15:49:39.273,2.3088972568511963,0,0.25157067287547963,0.3866102386899865,0,0,0,0,0,0,64.56,-0.919,0,59.5,3.42,0.761,0,108.82,mixed,95.0,,,
2025-11-16 15:49:40.273,2.325557231903076,0,0.25157067287547963,0.3866102386899865,0,0,0,0,0,0,64.6,0.044,48.6,7.4,9.07,0.525,0,123.41,mixed,95.0,,,
2025-11-16 15:49:41.273,2.3416500091552734,0,0.25157067287547963,0.3866102386899865,0,0,0,0,0,0,64.71,0.107,29.2,4.6,4.35,0.582,0,117.65,mixed,95.0,,,
2025-11-16 15:49:42.273,2.346203327178955,0,0.25157067287547963,0.3866102386899865,0,0,0,0,0,0,65.3,0.59,55.0,4.4,-10.98,0.631,0,125.62,mixed,95.0,,,
2025-11-16 15:49:43.273,2.3610379695892334,0,0.25157067287547963,0.3866102386899865,0,0,0,0,0,0,66.1,0.805,34.9,4.9,-5.45,0.642,0,119.9,mixed,95.0,,,
2025-11-16 15:49:44.273,2.376490592956543,0,0.25157067287547963,0.3866102386899865,0,0,0,0,0,0,65.92,-0.186,22.4,3.9,-13.64,0.653,0,116.08,mixed,95.0,,,
2025-11-16 15:49:45.273,2.3915789127349854,0,0.25157067287547963,0.3866102386899865,0,0,0,0,0,0,66.62,0.708,29.6,2.2,-23.02,0.725,0,118.52,mixed,95.0,,,
2025-11-16 15:49:46.273,2.4080982208251953,0,0.25157067287547963,0.3866102386899865,0,0,0,0,0,0,64.94,-1.686,0,92.0,-34.99,0.472,0,108.98,mixed,95.0,,,
2025-11-16 15:49:47.273,2.409963846206665,0,0.25157067287547963,0.3866102386899865,0,0,0,0,0,0,65.09,0.148,19.3,2.5,-24.95,0.647,0,114.83,mixed,95.0,,,
2025-11-16 15:49:48.273,2.424661159515381,0,0.25157067287547963,0.3866102386899865,0,0,0,0,0,0,64.64,-0.444,48.5,9.4,-37.05,0.605,0,123.42,mixed,95.0,,,
2025-11-16 15:49:49.273,2.4280142784118652,0,0.25157067287547963,0.3866102386899865,0,0,0,0,0,0,64.63,-0.011,52.0,10.1,-33.12,0.711,0,124.46,mixed,95.0,,,
2025-11-16 15:49:50.273,2.4497501850128174,0,0.25157067287547963,0.3866102386899865,0,0,0,0,0,0,65.12,0.486,37.4,15.4,-17.48,0.628,0,120.27,mixed,95.0,,,
2025-11-16 15:49:51.273,2.4582483768463135,0,0.25157067287547963,0.3866102386899865,0,0,0,0,0,0,62.19,-2.928,0,100.0,-21.1,0.628,0,117.88,mixed,83.0,,,
2025-11-16 15:49:52.273,2.473968744277954,0,0.25157067287547963,0.3866102386899865,0,0,0,0,0,0,63.81,1.621,45.9,3.5,-23.33,0.615,0,122.3,mixed,95.0,,,
2025-11-16 15:49:53.273,2.476449966430664,0,0.25157067287547963,0.3866102386899865,0,0,0,0,0,0,65.26,1.447,53.6,9.0,-9.29,0.578,0,125.2,mixed,95.0,,,
2025-11-16 15:49:54.273,2.4915599822998047,0,0.2455840893918852,0.404857955644628,0,0,0,0,0,0,63.78,-1.475,0,83.2,-16.94,0.639,0,108.51,mixed,95.0,,,
2025-11-16 15:49:55.273,2.493131160736084,0,0.2455840893918852,0.404857955644628,0,0,0,0,0,0,64.08,0.295,61.4,4.9,-17.17,0.715,0,127.06,mixed,95.0,,,
2025-11-16 15:49:56.273,2.5081517696380615,0,0.2455840893918852,0.404857955644628,0,0,0,0,0,0,64.19,0.111,66.5,9.5,-7.97,0.708,0,128.62,mixed,95.0,,,
2025-11-16 15:49:57.273,2.5177175998687744,0,0.2455840893918852,0.404857955644628,0,0,0,0,0,0,66.73,2.542,39.6,4.9,-7.08,0.666,0,141.58,mixed,80.0,,,
2025-11-16 15:49:58.273,2.5273776054382324,0,0.2455840893918852,0.404857955644628,0,0,0,0,0,0,67.54,0.804,35.5,9.6,4.44,0.701,0,120.67,mixed,95.0,,,
2025-11-16 15:49:59.273,2.5423288345336914,0,0.2455840893918852,0.404857955644628,0,0,0,0,0,0,68.04,0.504,70.2,14.6,-0.09,0.635,0,131.29,mixed,95.0,,,
2025-11-16 15:50:00.273,2.5589683055877686,0,0.2455840893918852,0.404857955644628,0,0,0,0,0,0,69.62,1.579,55.2,9.5,-8.73,0.745,0,127.42,mixed,95.0,,,
2025-11-16 15:50:01.273,2.5747997760772705,0,0.2455840893918852,0.404857955644628,0,0,0,0,0,0,67.22,-2.404,0,84.9,-7.38,0.676,0,109.89,mixed,95.0,,,
2025-11-16 15:50:02.273,2.5915603637695312,0,0.2455840893918852,0.404857955644628,0,0,0,0,0,0,66.41,-0.8,0,79.6,1.7,0.526,0,109.57,mixed,95.0,,,
2025-11-16 15:50:03.273,2.6080539226531982,0,0.2455840893918852,0.404857955644628,0,0,0,0,0,0,65.95,-0.464,43.3,0.0,26.39,0.561,0,122.38,mixed,95.0,,,
2025-11-16 15:50:04.273,2.610828399658203,0,0.2455840893918852,0.404857955644628,0,0,0,0,0,0,66.8,0.849,24.4,0.6,11.67,0.559,0,117.04,mixed,95.0,,,
2025-11-16 15:50:05.273,2.6258203983306885,0,0.2455840893918852,0.404857955644628,0,0,0,0,0,0,66.46,-0.337,28.1,16.4,9.9,0.604,0,118.01,mixed,95.0,,,
2025-11-16 15:50:06.273,2.6286518573760986,0,0.2455840893918852,0.404857955644628,0,0,0,0,0,0,65.44,-1.028,0,61.0,8.1,0.603,0,109.17,mixed,95.0,,,
2025-11-16 15:50:07.273,2.649812698364258,0,0.2455840893918852,0.404857955644628,0,0,0,0,0,0,65.83,0.397,11.6,0.0,8.8,0.656,0,112.83,mixed,95.0,,,
2025-11-16 15:50:08.273,2.6575562953948975,0,0.2455840893918852,0.404857955644628,0,0,0,0,0,0,66.01,0.181,63.1,0.0,11.87,0.531,0,128.35,mixed,95.0,,,
2025-11-16 15:50:09.273,2.6597275733947754,0,0.24741604046115034,0.37221345371031755,0,0,0,0,0,0,64.88,-1.133,0,68.4,5.21,0.591,0,108.95,mixed,95.0,,,
2025-11-16 15:50:10.273,2.6756012439727783,0,0.24741604046115034,0.37221345371031755,0,0,0,0,0,0,62.5,-2.382,0,83.8,-2.26,0.591,0,108.0,mixed,95.0,,,
2025-11-16 15:50:11.273,2.677588939666748,0,0.24741604046115034,0.37221345371031755,0,0,0,0,0,0,63.4,0.905,33.8,9.2,19.01,0.597,0,118.49,mixed,95.0,,,
2025-11-16 15:50:12.273,2.692251443862915,0,0.24741604046115034,0.37221345371031755,0,0,0,0,0,0,60.58,-2.825,0,96.3,3.78,0.513,0,117.23,mixed,83.0,,,
2025-11-16 15:50:13.273,2.7079832553863525,0,0.24741604046115034,0.37221345371031755,0,0,0,0,0,0,59.89,-0.692,0,46.2,10.03,0.782,0,106.95,mixed,95.0,,,
2025-11-16 15:50:14.273,2.7255756855010986,0,0.24741604046115034,0.37221345371031755,0,0,0,0,0,0,58.72,-1.17,0,56.5,14.03,0.697,0,106.49,mixed,95.0,,,
2025-11-16 15:50:15.273,2.7415733337402344,0,0.24741604046115034,0.37221345371031755,0,0,0,0,0,0,59.34,0.622,48.3,0.0,19.9,0.699,0,121.23,mixed,95.0,,,
2025-11-16 15:50:16.273,2.757878065109253,0,0.24741604046115034,0.37221345371031755,0,0,0,0,0,0,59.73,0.393,65.4,0.0,11.23,0.66,0,126.51,mixed,95.0,,,
2025-11-16 15:50:17.273,2.775489091873169,0,0.24741604046115034,0.37221345371031755,0,0,0,0,0,0,58.04,-1.687,0,96.5,13.91,0.761,0,106.22,mixed,95.0,,,
2025-11-16 15:50:18.273,2.79195237159729,0,0.24741604046115034,0.37221345371031755,0,0,0,0,0,0,55.46,-2.581,0,89.7,8.77,0.67,0,115.19,mixed,83.0,,,
2025-11-16 15:50:19.273,2.8077008724212646,0,0.24741604046115034,0.37221345371031755,0,0,0,0,0,0,56.72,1.26,42.6,2.9,-0.69,0.635,0,118.46,mixed,95.0,,,
2025-11-16 15:50:20.273,2.8094446659088135,0,0.24741604046115034,0.37221345371031755,0,0,0,0,0,0,56.7,-0.028,46.0,6.9,-3.71,0.52,0,119.48,mixed,95.0,,,
2025-11-16 15:50:21.273,2.824507713317871,0,0.24741604046115034,0.37221345371031755,0,0,0,0,0,0,57.49,0.799,41.7,0.0,-1.23,0.613,0,118.52,mixed,95.0,,,
2025-11-16 15:50:22.273,2.826312303543091,0,0.24741604046115034,0.37221345371031755,0,0,0,0,0,0,58.18,0.69,23.1,12.2,-4.69,0.761,0,113.2,mixed,95.0,,,
2025-11-16 15:50:23.273,2.8415603637695312,0,0.24741604046115034,0.37221345371031755,0,0,0,0,0,0,56.29,-1.893,0,92.0,4.49,0.72,0,105.52,mixed,95.0,,,
2025-11-16 15:50:24.273,2.8454365730285645,0,0.24741604046115034,0.37221345371031755,0,0,0,0,0,0,57.6,1.306,75.1,2.5,11.91,0.545,0,128.57,mixed,95.0,,,
2025-11-16 15:50:25.273,2.8610076904296875,0,0.24741604046115034,0.37221345371031755,0,0,0,0,0,0,59.66,2.06,39.6,17.8,13.73,0.628,0,118.75,mixed,95.0,,,
2025-11-16 15:50:26.273,2.8765532970428467,0,0.24741604046115034,0.37221345371031755,0,0,0,0,0,0,59.47,-0.187,25.8,1.3,19.02,0.49,0,114.54,mixed,95.0,,,
2025-11-16 15:50:27.273,2.891496419906616,0,0.24741604046115034,0.37221345371031755,0,0,0,0,0,0,59.49,0.02,42.5,10.2,20.91,0.663,0,119.55,mixed,95.0,,,
2025-11-16 15:50:28.273,2.893813371658325,0,0.24741604046115034,0.37221345371031755,0,0,0,0,0,0,61.6,2.11,30.3,14.1,16.45,0.627,0,116.72,mixed,95.0,,,
2025-11-16 15:50:29.273,2.908891439437866,0,0.24741604046115034,0.37221345371031755,0,0,0,0,0,0,63.12,1.515,61.3,0.0,4.76,0.594,0,126.63,mixed,95.0,,,
2025-11-16 15:50:30.273,2.924647569656372,0,0.24741604046115034,0.37221345371031755,0,0,0,0,0,0,62.37,-0.75,0,21.2,10.0,0.58,0,107.95,mixed,95.0,,,
2025-11-16 15:50:31.273,2.926504611968994,0,0.24741604046115034,0.37221345371031755,0,0,0,0,0,0,63.19,0.823,61.5,5.9,9.19,0.586,0,126.73,mixed,95.0,,,
2025-11-16 15:50:32.273,2.941561460494995,0,0.24741604046115034,0.37221345371031755,0,0,0,0,0,0,62.65,-0.538,0,35.5,8.48,0.547,0,108.06,mixed,95.0,,,
2025-11-16 15:50:33.273,2.9439697265625,0,0.24741604046115034,0.37221345371031755,0,0,0,0,0,0,62.56,-0.089,33.8,7.7,10.09,0.642,0,118.16,mixed,95.0,,,
2025-11-16 15:50:34.273,2.9587838649749756,0,0.24741604046115034,0.37221345371031755,0,0,0,0,0,0,63.7,1.134,13.9,9.8,31.28,0.65,0,112.66,mixed,95.0,,,
2025-11-16 15:50:35.273,2.973942518234253,0,0.24741604046115034,0.37221345371031755,0,0,0,0,0,0,62.08,-1.621,0,89.9,28.88,0.652,0,107.83,mixed,95.0,,,
2025-11-16 15:50:36.273,2.9762978553771973,0,0.30854478791928236,0.3993457294344392,0,0,0,0,0,0,64.0,1.921,48.1,5.3,24.87,0.793,0,123.03,mixed,95.0,,,
2025-11-16 15:50:37.273,2.9914727210998535,0,0.30854478791928236,0.3993457294344392,0,0,0,0,0,0,65.0,1.005,68.7,7.7,21.92,0.618,0,129.61,mixed,95.0,,,
2025-11-16 15:50:38.273,2.9933180809020996,0,0.30854478791928236,0.3993457294344392,0,0,0,0,0,0,66.15,1.146,36.2,0.0,32.2,0.64,0,120.3,mixed,95.0,,,
2025-11-16 15:50:39.273,3.0089612007141113,0,0.30854478791928236,0.3993457294344392,0,0,0,0,0,0,67.52,1.375,37.5,6.7,35.55,0.552,0,121.25,mixed,95.0,,,
2025-11-16 15:50:40.273,3.0176172256469727,0,0.30854478791928236,0.3993457294344392,0,0,0,0,0,0,69.56,2.033,57.7,7.2,39.15,0.535,0,128.14,mixed,95.0,,,
2025-11-16 15:50:41.273,3.028879165649414,0,0.30854478791928236,0.3993457294344392,0,0,0,0,0,0,68.73,-0.825,0,54.5,37.09,0.597,0,110.49,mixed,95.0,,,
2025-11-16 15:50:42.273,3.0435900688171387,0,0.30854478791928236,0.3993457294344392,0,0,0,0,0,0,69.1,0.371,58.1,0.0,30.74,0.597,0,128.08,mixed,95.0,,,
2025-11-16 15:50:43.273,3.0519633293151855,0,0.30854478791928236,0.3993457294344392,0,0,0,0,0,0,68.92,-0.185,21.3,1.1,29.54,0.553,0,116.97,mixed,95.0,,,
2025-11-16 15:50:44.273,3.064663887023926,0,0.30854478791928236,0.3993457294344392,0,0,0,0,0,0,68.56,-0.353,27.5,1.3,20.24,0.651,0,118.68,mixed,95.0,,,
2025-11-16 15:50:45.273,3.079529285430908,0,0.30854478791928236,0.3993457294344392,0,0,0,0,0,0,68.75,0.189,43.8,3.0,12.6,0.632,0,123.64,mixed,95.0,,,
2025-11-16 15:50:46.273,3.092270851135254,0,0.30854478791928236,0.3993457294344392,0,0,0,0,0,0,68.01,-0.746,0,60.2,18.4,0.596,0,110.2,mixed,95.0,,,
2025-11-16 15:50:47.273,3.1090152263641357,0,0.30854478791928236,0.3993457294344392,0,0,0,0,0,0,68.11,0.107,22.6,4.2,19.11,0.542,0,117.01,mixed,95.0,,,
2025-11-16 15:50:48.273,3.1255037784576416,0,0.30854478791928236,0.3993457294344392,0,0,0,0,0,0,68.77,0.654,48.7,0.0,5.1,0.621,0,125.11,mixed,95.0,,,
2025-11-16 15:50:49.273,3.141483783721924,0,0.30854478791928236,0.3993457294344392,0,0,0,0,0,0,69.38,0.613,46.0,3.3,4.36,0.705,0,124.54,mixed,95.0,,,
2025-11-16 15:50:50.273,3.158003568649292,0,0.30854478791928236,0.3993457294344392,0,0,0,0,0,0,69.66,0.283,46.3,7.7,5.39,0.672,0,124.77,mixed,95.0,,,
2025-11-16 15:50:51.273,3.1595957279205322,0,0.30854478791928236,0.3993457294344392,0,0,0,0,0,0,70.21,0.545,42.2,2.2,2.55,0.607,0,123.74,mixed,100,,,
2025-11-16 15:50:52.273,3.1751549243927,0,0.2682591691218707,0.4498109157084913,0,0,0,0,0,0,70.78,0.571,52.6,0.0,-10.88,0.796,0,127.08,mixed,100,,,
2025-11-16 15:50:53.273,3.1772043704986572,0,0.2682591691218707,0.4498109157084913,0,0,0,0,0,0,69.55,-1.225,0,91.0,-5.82,0.548,0,110.82,mixed,95.0,,,
2025-11-16 15:50:54.273,3.1923329830169678,0,0.2682591691218707,0.4498109157084913,0,0,0,0,0,0,67.96,-1.598,0,100.0,-19.82,0.595,0,110.18,mixed,95.0,,,
2025-11-16 15:50:55.273,3.20756196975708,0,0.2682591691218707,0.4498109157084913,0,0,0,0,0,0,68.6,0.64,49.4,3.6,4.68,0.694,0,125.26,mixed,95.0,,,
2025-11-16 15:50:56.273,3.225541353225708,0,0.2682591691218707,0.4498109157084913,0,0,0,0,0,0,67.07,-1.524,0,91.2,5.55,0.617,0,109.83,mixed,95.0,,,
2025-11-16 15:50:57.273,3.2415499687194824,0,0.2682591691218707,0.4498109157084913,0,0,0,0,0,0,67.24,0.164,63.4,6.4,20.11,0.681,0,128.91,mixed,95.0,,,
2025-11-16 15:50:58.273,3.2582011222839355,0,0.2682591691218707,0.4498109157084913,0,0,0,0,0,0,68.45,1.215,47.0,4.9,18.08,0.704,0,124.49,mixed,95.0,,,
2025-11-16 15:50:59.273,3.2746522426605225,0,0.2682591691218707,0.4498109157084913,0,0,0,0,0,0,68.38,-0.074,29.4,5.3,31.52,0.703,0,119.16,mixed,95.0,,,
2025-11-16 15:51:00.273,3.2765097618103027,0,0.2682591691218707,0.4498109157084913,0,0,0,0,0,0,67.96,-0.419,43.0,2.4,25.26,0.662,0,123.07,mixed,95.0,,,
2025-11-16 15:51:01.273,3.2913007736206055,0,0.2682591691218707,0.4498109157084913,0,0,0,0,0,0,67.75,-0.212,24.8,6.1,17.39,0.601,0,117.53,mixed,95.0,,,
2025-11-16 15:51:02.273,3.29304575920105,0,0.2682591691218707,0.4498109157084913,0,0,0,0,0,0,68.09,0.34,68.8,0.0,13.22,0.668,0,130.86,mixed,95.0,,,
2025-11-16 15:51:03.273,3.307662010192871,0,0.2682591691218707,0.4498109157084913,0,0,0,0,0,0,67.57,-0.521,0,30.9,7.03,0.756,0,110.03,mixed,95.0,,,
2025-11-16 15:51:04.273,3.3259267807006836,0,0.27684345177078046,0.4748922284302318,0,0,0,0,0,0,67.87,0.3,75.7,0.2,-1.38,0.468,0,132.85,mixed,95.0,,,
2025-11-16 15:51:05.273,3.3417043685913086,0,0.27684345177078046,0.4748922284302318,0,0,0,0,0,0,67.05,-0.818,0,61.0,-1.41,0.74,0,109.82,mixed,95.0,,,
2025-11-16 15:51:06.273,3.3446552753448486,0,0.27684345177078046,0.4748922284302318,0,0,0,0,0,0,67.99,0.941,58.0,3.3,-2.84,0.601,0,127.59,mixed,95.0,,,
2025-11-16 15:51:07.273,3.3599960803985596,0,0.27684345177078046,0.4748922284302318,0,0,0,0,0,0,67.68,-0.305,26.3,4.2,-1.87,0.696,0,117.97,mixed,95.0,,,
2025-11-16 15:51:08.273,3.3756041526794434,0,0.27684345177078046,0.4748922284302318,0,0,0,0,0,0,67.8,0.113,64.0,10.3,-1.06,0.444,0,129.33,mixed,95.0,,,
2025-11-16 15:51:09.273,3.392361879348755,0,0.27684345177078046,0.4748922284302318,0,0,0,0,0,0,67.09,-0.71,0,40.4,-14.33,0.549,0,109.83,mixed,95.0,,,
2025-11-16 15:51:10.273,3.407682418823242,0,0.27684345177078046,0.4748922284302318,0,0,0,0,0,0,66.67,-0.416,27.9,7.6,-3.27,0.709,0,118.05,mixed,95.0,,,
2025-11-16 15:51:11.273,3.409808874130249,0,0.27684345177078046,0.4748922284302318,0,0,0,0,0,0,66.78,0.104,39.3,7.7,-11.59,0.681,0,121.5,mixed,95.0,,,
2025-11-16 15:51:12.273,3.424603223800659,0,0.27684345177078046,0.4748922284302318,0,0,0,0,0,0,68.42,1.642,25.7,8.8,-12.21,0.645,0,118.09,mixed,95.0,,,
2025-11-16 15:51:13.273,3.441715717315674,0,0.27684345177078046,0.4748922284302318,0,0,0,0,0,0,68.03,-0.391,26.3,3.1,-16.22,0.53,0,118.11,mixed,95.0,,,
2025-11-16 15:51:14.273,3.4589555263519287,0,0.27684345177078046,0.4748922284302318,0,0,0,0,0,0,68.46,0.434,52.9,1.9,-15.93,0.625,0,126.26,mixed,95.0,,,
2025-11-16 15:51:15.273,3.4756383895874023,0,0.27684345177078046,0.4748922284302318,0,0,0,0,0,0,67.87,-0.589,0,43.8,-29.5,0.6,0,110.15,mixed,95.0,,,
2025-11-16 15:51:16.273,3.4922220706939697,0,0.27684345177078046,0.4748922284302318,0,0,0,0,0,0,68.14,0.272,30.7,1.1,-45.0,0.616,0,119.48,mixed,95.0,,,
2025-11-16 15:51:17.273,3.5089609622955322,0,0.2796117451181118,0.4733558334620314,0,0,0,0,0,0,66.55,-1.591,0,91.9,-45.0,0.462,0,109.62,mixed,95.0,,,
2025-11-16 15:51:18.273,3.514580488204956,0,0.2796117451181118,0.4733558334620314,0,0,0,0,0,0,67.27,0.715,43.2,6.2,-31.91,0.528,0,122.86,mixed,95.0,,,
2025-11-16 15:51:19.273,3.5276081562042236,0,0.2796117451181118,0.4733558334620314,0,0,0,0,0,0,67.18,-0.086,27.4,1.0,-29.03,0.783,0,118.09,mixed,95.0,,,
2025-11-16 15:51:20.273,3.543498992919922,0,0.2796117451181118,0.4733558334620314,0,0,0,0,0,0,67.34,0.161,59.1,6.0,-19.61,0.623,0,127.68,mixed,95.0,,,
2025-11-16 15:51:21.273,3.5588619709014893,0,0.2796117451181118,0.4733558334620314,0,0,0,0,0,0,66.25,-1.092,0,65.5,-17.18,0.701,0,109.5,mixed,95.0,,,
2025-11-16 15:51:22.273,3.5766308307647705,0,0.2796117451181118,0.4733558334620314,0,0,0,0,0,0,66.1,-0.145,30.3,9.1,-12.15,0.507,0,118.52,mixed,95.0,,,
2025-11-16 15:51:23.273,3.592329263687134,0,0.2796117451181118,0.4733558334620314,0,0,0,0,0,0,64.95,-1.155,0,95.5,-14.1,0.561,0,108.98,mixed,95.0,,,
2025-11-16 15:51:24.273,3.6081204414367676,0,0.2796117451181118,0.4733558334620314,0,0,0,0,0,0,66.06,1.109,50.5,2.8,-21.41,0.736,0,124.58,mixed,95.0,,,
2025-11-16 15:51:25.273,3.6098597049713135,0,0.2796117451181118,0.4733558334620314,0,0,0,0,0,0,65.31,-0.747,0,48.8,-23.36,0.566,0,109.12,mixed,95.0,,,
2025-11-16 15:51:26.273,3.6250438690185547,0,0.2796117451181118,0.4733558334620314,0,0,0,0,0,0,65.88,0.568,49.8,1.2,4.95,0.548,0,124.29,mixed,95.0,,,
2025-11-16 15:51:27.273,3.641594171524048,0,0.2796117451181118,0.4733558334620314,0,0,0,0,0,0,65.99,0.111,10.4,7.8,-5.72,0.51,0,112.51,mixed,95.0,,,
2025-11-16 15:51:28.273,3.657949686050415,0,0.2796117451181118,0.4733558334620314,0,0,0,0,0,0,66.83,0.839,33.2,7.6,-21.6,0.675,0,119.71,mixed,95.0,,,
2025-11-16 15:51:29.273,3.6782498359680176,0,0.27767505806346765,0.4689718811961133,0,0,0,0,0,0,67.57,0.739,49.4,8.2,-28.4,0.811,0,124.85,mixed,95.0,,,
2025-11-16 15:51:30.273,3.693563461303711,0,0.27767505806346765,0.4689718811961133,0,0,0,0,0,0,67.53,-0.037,33.1,13.4,-40.53,0.511,0,119.94,mixed,95.0,,,
2025-11-16 15:51:31.273,3.6963422298431396,0,0.27767505806346765,0.4689718811961133,0,0,0,0,0,0,67.07,-0.457,0,34.1,-37.67,0.536,0,109.83,mixed,95.0,,,
2025-11-16 15:51:32.273,3.7150325775146484,0,0.27767505806346765,0.4689718811961133,0,0,0,0,0,0,67.08,0.003,34.5,3.5,-45.0,0.585,0,120.19,mixed,95.0,,,
2025-11-16 15:51:33.273,3.7271716594696045,0,0.27767505806346765,0.4689718811961133,0,0,0,0,0,0,65.5,-1.581,0,100.0,-34.07,0.66,0,109.2,mixed,95.0,,,
2025-11-16 15:51:34.273,3.7423934936523438,0,0.27767505806346765,0.4689718811961133,0,0,0,0,0,0,64.07,-1.423,0,98.2,-3.24,0.569,0,108.63,mixed,95.0,,,
2025-11-16 15:51:35.273,3.759188413619995,0,0.27767505806346765,0.4689718811961133,0,0,0,0,0,0,64.03,-0.043,23.8,2.5,-11.35,0.559,0,115.75,mixed,95.0,,,
2025-11-16 15:51:36.273,3.775845766067505,0,0.27767505806346765,0.4689718811961133,0,0,0,0,0,0,63.22,-0.805,0,56.0,-3.01,0.574,0,108.29,mixed,95.0,,,
2025-11-16 15:51:37.273,3.7925069332122803,0,0.27767505806346765,0.4689718811961133,0,0,0,0,0,0,63.23,0.008,31.2,6.8,0.22,0.635,0,117.65,mixed,95.0,,,
2025-11-16 15:51:38.273,3.807884931564331,0,0.27767505806346765,0.4689718811961133,0,0,0,0,0,0,64.99,1.76,78.1,8.7,-22.72,0.721,0,132.42,mixed,95.0,,,
2025-11-16 15:51:39.273,3.824106454849243,0,0.27767505806346765,0.4689718811961133,0,0,0,0,0,0,64.91,-0.079,39.0,0.8,-14.22,0.591,0,120.66,mixed,95.0,,,
2025-11-16 15:51:40.273,3.8263955116271973,0,0.27767505806346765,0.4689718811961133,0,0,0,0,0,0,64.15,-0.76,0,42.4,-10.93,0.626,0,108.66,mixed,95.0,,,
2025-11-16 15:51:41.273,3.8413028717041016,0,0.27767505806346765,0.4689718811961133,0,0,0,0,0,0,64.71,0.56,56.6,5.7,-12.64,0.648,0,125.87,mixed,95.0,,,
2025-11-16 15:51:42.273,3.8457345962524414,0,0.27767505806346765,0.4689718811961133,0,0,0,0,0,0,65.42,0.707,41.1,0.0,-11.24,0.749,0,121.5,mixed,95.0,,,
2025-11-16 15:51:43.273,3.8699493408203125,0,0.27767505806346765,0.4689718811961133,0,0,0,0,0,0,66.41,0.989,47.1,11.7,-9.4,0.698,0,123.7,mixed,95.0,,,
2025-11-16 15:51:44.273,3.8764123916625977,0,0.27767505806346765,0.4689718811961133,0,0,0,0,0,0,66.98,0.57,36.1,10.8,-3.78,0.571,0,120.63,mixed,95.0,,,
2025-11-16 15:51:45.273,3.891549825668335,0,0.27767505806346765,0.4689718811961133,0,0,0,0,0,0,66.97,-0.014,27.8,1.7,-2.2,0.644,0,118.14,mixed,95.0,,,
2025-11-16 15:51:46.273,3.907832384109497,0,0.27767505806346765,0.4689718811961133,0,0,0,0,0,0,68.35,1.384,34.4,6.3,-7.55,0.709,0,120.65,mixed,95.0,,,
2025-11-16 15:51:47.273,3.909780263900757,0,0.27767505806346765,0.4689718811961133,0,0,0,0,0,0,66.83,-1.517,0,83.4,-17.6,0.48,0,109.73,mixed,95.0,,,
2025-11-16 15:51:48.273,3.9246721267700195,0,0.27767505806346765,0.4689718811961133,0,0,0,0,0,0,63.99,-2.843,0,77.1,-12.03,0.605,0,118.6,mixed,83.0,,,
2025-11-16 15:51:49.273,3.9265263080596924,0,0.27767505806346765,0.4689718811961133,0,0,0,0,0,0,63.74,-0.247,32.5,0.0,-30.17,0.624,0,118.26,mixed,95.0,,,
2025-11-16 15:51:50.273,3.941530704498291,0,0.2720086237839906,0.4554698950449746,0,0,0,0,0,0,65.95,2.207,42.4,3.0,-45.0,0.516,0,122.11,mixed,95.0,,,
2025-11-16 15:51:51.273,3.9439187049865723,0,0.2720086237839906,0.4554698950449746,0,0,0,0,0,0,67.35,1.397,33.4,8.7,-45.0,0.525,0,119.97,mixed,95.0,,,
2025-11-16 15:51:52.273,3.9591403007507324,0,0.2720086237839906,0.4554698950449746,0,0,0,0,0,0,67.51,0.16,33.4,12.7,-22.43,0.597,0,120.03,mixed,95.0,,,
2025-11-16 15:51:53.273,3.9757301807403564,0,0.2720086237839906,0.4554698950449746,0,0,0,0,0,0,67.23,-0.276,45.2,4.7,-16.76,0.604,0,123.46,mixed,95.0,,,
2025-11-16 15:51:54.273,3.9918529987335205,0,0.2720086237839906,0.4554698950449746,0,0,0,0,0,0,66.8,-0.434,40.4,5.1,-16.82,0.545,0,121.84,mixed,95.0,,,
2025-11-16 15:51:55.273,4.007699251174927,0,0.2720086237839906,0.4554698950449746,0,0,0,0,0,0,67.51,0.713,52.3,3.4,-1.32,0.669,0,125.69,mixed,95.0,,,
2025-11-16 15:51:56.273,4.014346599578857,0,0.2720086237839906,0.4554698950449746,0,0,0,0,0,0,68.17,0.662,13.7,13.0,-4.27,0.676,0,114.39,mixed,95.0,,,
2025-11-16 15:51:57.273,4.027781248092651,0,0.2720086237839906,0.4554698950449746,0,0,0,0,0,0,68.88,0.705,59.8,6.3,-10.38,0.575,0,128.49,mixed,95.0,,,
2025-11-16 15:51:58.273,4.042754650115967,0,0.2720086237839906,0.4554698950449746,0,0,0,0,0,0,66.94,-1.934,0,95.4,-31.21,0.436,0,109.78,mixed,95.0,,,
2025-11-16 15:51:59.273,4.058883905410767,0,0.2720086237839906,0.4554698950449746,0,0,0,0,0,0,65.25,-1.686,0,100.0,-35.04,0.637,0,109.1,mixed,95.0,,,
2025-11-16 15:52:00.273,4.06225323677063,0,0.2720086237839906,0.4554698950449746,0,0,0,0,0,0,64.45,-0.807,0,49.2,-45.0,0.668,0,108.78,mixed,95.0,,,
2025-11-16 15:52:01.273,4.075532913208008,0,0.2720086237839906,0.4554698950449746,0,0,0,0,0,0,63.6,-0.851,0,42.5,-43.76,0.614,0,108.44,mixed,95.0,,,
2025-11-16 15:52:02.273,4.079647541046143,0,0.2720086237839906,0.4554698950449746,0,0,0,0,0,0,64.37,0.768,32.1,3.9,-45.0,0.656,0,118.39,mixed,95.0,,,
2025-11-16 15:52:03.273,4.095164775848389,0,0.25393594556308846,0.41433963202284424,0,0,0,0,0,0,62.92,-1.441,0,84.5,-45.0,0.609,0,108.17,mixed,95.0,,,
2025-11-16 15:52:04.273,4.109876871109009,0,0.25393594556308846,0.41433963202284424,0,0,0,0,0,0,60.85,-2.071,0,100.0,-24.88,0.516,0,107.34,mixed,95.0,,,
2025-11-16 15:52:05.273,4.124705791473389,0,0.25393594556308846,0.41433963202284424,0,0,0,0,0,0,62.35,1.492,56.7,0.4,-40.09,0.565,0,124.95,mixed,95.0,,,
2025-11-16 15:52:06.273,4.139946699142456,0,0.25393594556308846,0.41433963202284424,0,0,0,0,0,0,62.42,0.075,29.1,1.3,-27.83,0.712,0,116.7,mixed,95.0,,,
2025-11-16 15:52:07.273,4.158588647842407,0,0.25393594556308846,0.41433963202284424,0,0,0,0,0,0,62.54,0.123,35.7,7.7,-19.41,0.638,0,118.74,mixed,95.0,,,
2025-11-16 15:52:08.273,4.175636291503906,0,0.25393594556308846,0.41433963202284424,0,0,0,0,0,0,61.98,-0.56,0,32.2,-36.63,0.561,0,107.79,mixed,95.0,,,
2025-11-16 15:52:09.273,4.178107976913452,0,0.25393594556308846,0.41433963202284424,0,0,0,0,0,0,61.16,-0.824,0,55.2,-24.36,0.602,0,107.46,mixed,95.0,,,
2025-11-16 15:52:10.273,4.19361424446106,0,0.25393594556308846,0.41433963202284424,0,0,0,0,0,0,61.63,0.474,29.7,1.9,-9.43,0.669,0,116.56,mixed,95.0,,,
2025-11-16 15:52:11.273,4.209115743637085,0,0.25393594556308846,0.41433963202284424,0,0,0,0,0,0,61.43,-0.206,27.1,6.0,-5.29,0.668,0,115.69,mixed,95.0,,,
2025-11-16 15:52:12.273,4.225298881530762,0,0.25393594556308846,0.41433963202284424,0,0,0,0,0,0,61.84,0.415,42.3,0.8,5.16,0.59,0,120.43,mixed,95.0,,,
2025-11-16 15:52:13.273,4.2410712242126465,0,0.25393594556308846,0.41433963202284424,0,0,0,0,0,0,61.87,0.024,47.9,11.6,-11.12,0.526,0,122.12,mixed,95.0,,,
2025-11-16 15:52:14.273,4.258527517318726,0,0.24542036880959914,0.417610931276328,0,0,0,0,0,0,61.62,-0.25,13.3,6.7,-14.57,0.628,0,111.65,mixed,95.0,,,
2025-11-16 15:52:15.273,4.2757508754730225,0,0.24542036880959914,0.417610931276328,0,0,0,0,0,0,62.18,0.559,29.2,10.1,-27.75,0.492,0,116.64,mixed,95.0,,,
2025-11-16 15:52:16.273,4.2921977043151855,0,0.24542036880959914,0.417610931276328,0,0,0,0,0,0,61.72,-0.453,0,32.6,-19.33,0.69,0,107.69,mixed,95.0,,,
2025-11-16 15:52:17.273,4.307938814163208,0,0.24542036880959914,0.417610931276328,0,0,0,0,0,0,60.18,-1.546,0,100.0,-19.78,0.621,0,107.07,mixed,95.0,,,
2025-11-16 15:52:18.273,4.325466156005859,0,0.24542036880959914,0.417610931276328,0,0,0,0,0,0,62.61,2.438,46.8,0.0,-18.45,0.72,0,122.09,mixed,95.0,,,
2025-11-16 15:52:19.273,4.342379093170166,0,0.24542036880959914,0.417610931276328,0,0,0,0,0,0,65.03,2.416,42.0,4.1,-18.87,0.606,0,121.61,mixed,95.0,,,
2025-11-16 15:52:20.273,4.35895848274231,0,0.24542036880959914,0.417610931276328,0,0,0,0,0,0,64.94,-0.094,18.9,4.4,-33.99,0.6,0,114.64,mixed,95.0,,,
2025-11-16 15:52:21.273,4.375785827636719,0,0.24542036880959914,0.417610931276328,0,0,0,0,0,0,63.39,-1.547,0,76.4,-37.1,0.533,0,108.36,mixed,95.0,,,
2025-11-16 15:52:22.273,4.391476392745972,0,0.24542036880959914,0.417610931276328,0,0,0,0,0,0,63.24,-0.146,36.2,10.1,-40.59,0.689,0,119.16,mixed,95.0,,,
2025-11-16 15:52:23.273,4.39341926574707,0,0.24542036880959914,0.417610931276328,0,0,0,0,0,0,61.77,-1.472,0,96.8,-37.24,0.685,0,107.71,mixed,95.0,,,
2025-11-16 15:52:24.273,4.4091362953186035,0,0.2126785800178114,0.4093508194051867,0,0,0,0,0,0,62.22,0.448,56.0,9.6,-36.61,0.523,0,124.68,mixed,95.0,,,
2025-11-16 15:52:25.273,4.425617218017578,0,0.2126785800178114,0.4093508194051867,0,0,0,0,0,0,62.83,0.611,25.4,0.0,-43.76,0.57,0,115.75,mixed,95.0,,,
2025-11-16 15:52:26.273,4.4429638385772705,0,0.2126785800178114,0.4093508194051867,0,0,0,0,0,0,63.39,0.56,31.9,3.4,-45.0,0.496,0,117.92,mixed,95.0,,,
2025-11-16 15:52:27.273,4.4590232372283936,0,0.2126785800178114,0.4093508194051867,0,0,0,0,0,0,64.57,1.176,60.4,9.1,-45.0,0.542,0,126.95,mixed,95.0,,,
2025-11-16 15:52:28.273,4.473967790603638,0,0.2126785800178114,0.4093508194051867,0,0,0,0,0,0,66.22,1.649,46.7,3.7,-45.0,0.533,0,123.49,mixed,95.0,,,
2025-11-16 15:52:29.273,4.491640567779541,0,0.2126785800178114,0.4093508194051867,0,0,0,0,0,0,63.4,-2.814,0,98.0,-45.0,0.584,0,118.36,mixed,83.0,,,
2025-11-16 15:52:30.273,4.508531093597412,0,0.2126785800178114,0.4093508194051867,0,0,0,0,0,0,64.54,1.134,54.0,8.5,-45.0,0.512,0,125.01,mixed,95.0,,,
2025-11-16 15:52:31.273,4.514635324478149,0,0.2126785800178114,0.4093508194051867,0,0,0,0,0,0,64.01,-0.524,0,33.2,-45.0,0.631,0,108.6,mixed,95.0,,,
2025-11-16 15:52:32.273,4.527230978012085,0,0.2126785800178114,0.4093508194051867,0,0,0,0,0,0,63.96,-0.055,19.2,2.8,-45.0,0.493,0,114.33,mixed,95.0,,,
2025-11-16 15:52:33.273,4.542209148406982,0,0.2126785800178114,0.4093508194051867,0,0,0,0,0,0,64.99,1.029,22.5,0.0,-42.98,0.64,0,115.73,mixed,95.0,,,
2025-11-16 15:52:34.273,4.544452667236328,0,0.2126785800178114,0.4093508194051867,0,0,0,0,0,0,64.57,-0.419,30.6,2.4,-22.97,0.587,0,118.02,mixed,95.0,,,
2025-11-16 15:52:35.273,4.559160947799683,0,0.2126785800178114,0.4093508194051867,0,0,0,0,0,0,62.03,-2.536,0,98.6,-32.24,0.644,0,117.81,mixed,83.0,,,
2025-11-16 15:52:36.273,4.575307846069336,0,0.21073262331553058,0.40051368046545543,0,0,0,0,0,0,62.85,0.814,44.1,8.6,-28.0,0.668,0,121.36,mixed,95.0,,,
2025-11-16 15:52:37.273,4.592497110366821,0,0.21073262331553058,0.40051368046545543,0,0,0,0,0,0,64.03,1.182,44.9,3.4,-18.41,0.618,0,122.09,mixed,95.0,,,
2025-11-16 15:52:38.273,4.608227491378784,0,0.21073262331553058,0.40051368046545543,0,0,0,0,0,0,64.56,0.529,25.8,6.1,-24.35,0.572,0,116.56,mixed,95.0,,,
2025-11-16 15:52:39.273,4.624223947525024,0,0.21073262331553058,0.40051368046545543,0,0,0,0,0,0,65.39,0.83,41.5,5.7,-32.79,0.593,0,121.61,mixed,95.0,,,
2025-11-16 15:52:40.273,4.628759860992432,0,0.21073262331553058,0.40051368046545543,0,0,0,0,0,0,65.35,-0.038,43.4,5.1,-4.74,0.609,0,122.15,mixed,95.0,,,
2025-11-16 15:52:41.273,4.642493724822998,0,0.21073262331553058,0.40051368046545543,0,0,0,0,0,0,66.3,0.956,48.6,11.9,-5.43,0.57,0,124.1,mixed,95.0,,,
2025-11-16 15:52:42.273,4.657824754714966,0,0.21073262331553058,0.40051368046545543,0,0,0,0,0,0,65.38,-0.922,0,71.9,-5.58,0.642,0,109.15,mixed,95.0,,,
2025-11-16 15:52:43.273,4.674064874649048,0,0.21073262331553058,0.40051368046545543,0,0,0,0,0,0,64.89,-0.489,0,30.7,11.04,0.57,0,108.96,mixed,95.0,,,
2025-11-16 15:52:44.273,4.689709186553955,0,0.21073262331553058,0.40051368046545543,0,0,0,0,0,0,64.11,-0.783,0,44.4,9.58,0.621,0,108.64,mixed,95.0,,,
2025-11-16 15:52:45.273,4.708874702453613,0,0.21073262331553058,0.40051368046545543,0,0,0,0,0,0,65.17,1.063,41.9,0.0,1.14,0.636,0,121.64,mixed,95.0,,,
2025-11-16 15:52:46.273,4.725580930709839,0,0.21073262331553058,0.40051368046545543,0,0,0,0,0,0,65.59,0.422,61.9,7.2,-9.98,0.607,0,127.81,mixed,95.0,,,
2025-11-16 15:52:47.273,4.741369724273682,0,0.22031868359940193,0.39688253312484045,0,0,0,0,0,0,64.94,-0.659,0,25.4,-19.48,0.593,0,108.97,mixed,95.0,,,
2025-11-16 15:52:48.273,4.75809907913208,0,0.22031868359940193,0.39688253312484045,0,0,0,0,0,0,63.1,-1.838,0,97.3,-18.84,0.684,0,108.24,mixed,95.0,,,
2025-11-16 15:52:49.273,4.774079084396362,0,0.22031868359940193,0.39688253312484045,0,0,0,0,0,0,65.35,2.252,29.0,5.3,-14.52,0.626,0,117.84,mixed,95.0,,,
2025-11-16 15:52:50.273,4.791301250457764,0,0.22031868359940193,0.39688253312484045,0,0,0,0,0,0,65.32,-0.026,31.9,0.0,-9.58,0.69,0,118.7,mixed,95.0,,,
2025-11-16 15:52:51.273,4.793071985244751,0,0.22031868359940193,0.39688253312484045,0,0,0,0,0,0,65.47,0.141,49.0,0.4,-23.4,0.523,0,123.88,mixed,95.0,,,
2025-11-16 15:52:52.273,4.808162212371826,0,0.22031868359940193,0.39688253312484045,0,0,0,0,0,0,66.41,0.947,58.2,2.7,-19.36,0.585,0,127.02,mixed,95.0,,,
2025-11-16 15:52:53.273,4.82543683052063,0,0.22031868359940193,0.39688253312484045,0,0,0,0,0,0,66.1,-0.317,19.8,0.8,-12.77,0.67,0,115.36,mixed,95.0,,,
2025-11-16 15:52:54.273,4.841299057006836,0,0.22031868359940193,0.39688253312484045,0,0,0,0,0,0,66.47,0.372,19.2,0.0,-9.66,0.442,0,115.35,mixed,95.0,,,
2025-11-16 15:52:55.273,4.842993974685669,0,0.22031868359940193,0.39688253312484045,0,0,0,0,0,0,67.86,1.397,33.5,10.6,-3.06,0.52,0,120.18,mixed,95.0,,,
2025-11-16 15:52:56.273,4.858034610748291,0,0.22031868359940193,0.39688253312484045,0,0,0,0,0,0,68.95,1.082,36.3,11.4,2.55,0.477,0,121.47,mixed,95.0,,,
2025-11-16 15:52:57.273,4.861479043960571,0,0.22031868359940193,0.39688253312484045,0,0,0,0,0,0,67.44,-1.502,0,100.0,1.43,0.525,0,109.98,mixed,95.0,,,
2025-11-16 15:52:58.273,4.8756349086761475,0,0.22031868359940193,0.39688253312484045,0,0,0,0,0,0,65.51,-1.939,0,100.0,21.46,0.626,0,109.2,mixed,95.0,,,
2025-11-16 15:52:59.273,4.892193794250488,0,0.22434207067278283,0.40803173813269716,0,0,0,0,0,0,65.56,0.056,31.2,3.2,17.6,0.626,0,118.59,mixed,95.0,,,
2025-11-16 15:53:00.273,4.907905101776123,0,0.22434207067278283,0.40803173813269716,0,0,0,0,0,0,65.53,-0.031,22.7,3.8,7.95,0.391,0,116.04,mixed,95.0,,,
2025-11-16 15:53:01.273,4.909602880477905,0,0.22434207067278283,0.40803173813269716,0,0,0,0,0,0,66.94,1.407,38.8,0.0,9.53,0.552,0,121.42,mixed,95.0,,,
2025-11-16 15:53:02.273,4.925597906112671,0,0.22434207067278283,0.40803173813269716,0,0,0,0,0,0,65.37,-1.566,0,92.3,32.42,0.748,0,109.15,mixed,95.0,,,
2025-11-16 15:53:03.273,4.941665172576904,0,0.22434207067278283,0.40803173813269716,0,0,0,0,0,0,65.51,0.138,66.6,11.0,27.18,0.675,0,129.18,mixed,95.0,,,
2025-11-16 15:53:04.273,4.958885669708252,0,0.22434207067278283,0.40803173813269716,0,0,0,0,0,0,67.14,1.631,47.2,7.7,19.62,0.583,0,124.03,mixed,95.0,,,
2025-11-16 15:53:05.273,4.9755332469940186,0,0.22434207067278283,0.40803173813269716,0,0,0,0,0,0,65.75,-1.394,0,100.0,16.66,0.821,0,109.3,mixed,95.0,,,
2025-11-16 15:53:06.273,4.9915452003479,0,0.22434207067278283,0.40803173813269716,0,0,0,0,0,0,65.82,0.075,37.2,8.3,9.21,0.812,0,120.49,mixed,95.0,,,
2025-11-16 15:53:07.273,5.009017705917358,0,0.22434207067278283,0.40803173813269716,0,0,0,0,0,0,65.23,-0.589,0,30.3,16.44,0.532,0,109.09,mixed,95.0,,,
2025-11-16 15:53:08.273,5.018220663070679,0,0.22434207067278283,0.40803173813269716,0,0,0,0,0,0,65.2,-0.03,28.0,8.7,30.36,0.617,0,117.49,mixed,95.0,,,
2025-11-16 15:53:09.273,5.027495861053467,0,0.22434207067278283,0.40803173813269716,0,0,0,0,0,0,65.07,-0.134,26.6,10.0,42.75,0.477,0,117.02,mixed,95.0,,,
2025-11-16 15:53:10.273,5.044877290725708,0,0.22434207067278283,0.40803173813269716,0,0,0,0,0,0,64.89,-0.181,40.2,2.4,39.35,0.602,0,121.01,mixed,95.0,,,
2025-11-16 15:53:11.273,5.095288276672363,0,0.21248865818974946,0.4132384488243556,0,0,0,0,0,0,64.36,-0.529,0,23.1,45.0,0.567,0,108.74,mixed,95.0,,,
2025-11-16 15:53:12.273,5.110926628112793,0,0.21248865818974946,0.4132384488243556,0,0,0,0,0,0,65.45,1.092,45.0,0.4,36.71,0.438,0,122.68,mixed,95.0,,,
2025-11-16 15:53:13.273,5.119887828826904,0,0.21248865818974946,0.4132384488243556,0,0,0,0,0,0,65.17,-0.278,22.0,4.4,31.39,0.542,0,115.67,mixed,95.0,,,
2025-11-16 15:53:14.273,5.127740859985352,0,0.21248865818974946,0.4132384488243556,0,0,0,0,0,0,66.02,0.842,55.2,8.4,18.29,0.638,0,125.96,mixed,95.0,,,
2025-11-16 15:53:15.273,5.1431214809417725,0,0.21248865818974946,0.4132384488243556,0,0,0,0,0,0,66.51,0.498,36.3,0.4,4.75,0.618,0,120.5,mixed,95.0,,,
2025-11-16 15:53:16.273,5.158212661743164,0,0.21248865818974946,0.4132384488243556,0,0,0,0,0,0,66.22,-0.292,34.2,5.6,-6.38,0.582,0,119.74,mixed,95.0,,,
2025-11-16 15:53:17.273,5.1745827198028564,0,0.21248865818974946,0.4132384488243556,0,0,0,0,0,0,65.19,-1.034,0,74.2,-8.77,0.6,0,109.08,mixed,95.0,,,
2025-11-16 15:53:18.273,5.178003787994385,0,0.21248865818974946,0.4132384488243556,0,0,0,0,0,0,66.99,1.801,40.9,5.6,3.12,0.684,0,122.06,mixed,95.0,,,
2025-11-16 15:53:19.273,5.193340539932251,0,0.21248865818974946,0.4132384488243556,0,0,0,0,0,0,65.73,-1.261,0,97.4,-4.02,0.539,0,109.29,mixed,95.0,,,
2025-11-16 15:53:20.273,5.208895683288574,0,0.21248865818974946,0.4132384488243556,0,0,0,0,0,0,64.73,-1.0,0,58.6,-1.24,0.491,0,108.89,mixed,95.0,,,
2025-11-16 15:53:21.273,5.2248780727386475,0,0.21248865818974946,0.4132384488243556,0,0,0,0,0,0,64.08,-0.653,0,52.6,-1.93,0.583,0,108.63,mixed,95.0,,,
2025-11-16 15:53:22.273,5.24158787727356,0,0.21248865818974946,0.4132384488243556,0,0,0,0,0,0,62.23,-1.843,0,95.6,18.98,0.624,0,107.89,mixed,95.0,,,
2025-11-16 15:53:23.273,5.258042335510254,1,0.216400649181637,0.391401609542183,0,0,0,0,0,0,62.65,0.414,48.8,11.4,14.95,0.725,0,122.69,mixed,95.0,,,
2025-11-16 15:53:24.273,5.259701251983643,1,0.216400649181637,0.391401609542183,0,0,0,0,0,0,59.98,-2.662,0,98.2,13.69,0.523,0,116.99,mixed,83.0,,,
2025-11-16 15:53:25.273,5.274769067764282,1,0.216400649181637,0.391401609542183,0,0,0,0,0,0,62.66,2.676,5.4,0.0,27.88,0.506,0,129.7,mixed,80.0,,,
2025-11-16 15:53:26.273,5.292283773422241,1,0.216400649181637,0.391401609542183,0,0,0,0,0,0,62.97,0.309,60.5,18.4,34.77,0.845,0,126.34,mixed,95.0,,,
2025-11-16 15:53:27.273,5.307878255844116,1,0.216400649181637,0.391401609542183,0,0,0,0,0,0,61.03,-1.94,0,100.0,35.92,0.56,0,107.41,mixed,95.0,,,
2025-11-16 15:53:28.273,5.325024127960205,1,0.216400649181637,0.391401609542183,0,0,0,0,0,0,61.36,0.327,49.2,9.5,35.31,0.695,0,122.3,mixed,95.0,,,
2025-11-16 15:53:29.273,5.342246055603027,1,0.216400649181637,0.391401609542183,0,0,0,0,0,0,62.8,1.441,41.0,7.6,23.12,0.579,0,120.41,mixed,95.0,,,
2025-11-16 15:53:30.273,5.344366788864136,1,0.216400649181637,0.391401609542183,0,0,0,0,0,0,63.03,0.232,38.9,7.9,35.81,0.763,0,119.88,mixed,95.0,,,
2025-11-16 15:53:31.273,5.359630823135376,1,0.216400649181637,0.391401609542183,0,0,0,0,0,0,62.19,-0.834,0,60.4,27.93,0.586,0,107.88,mixed,95.0,,,
2025-11-16 15:53:32.273,5.374929904937744,1,0.216400649181637,0.391401609542183,0,0,0,0,0,0,63.79,1.599,48.0,7.2,27.08,0.603,0,122.91,mixed,95.0,,,
2025-11-16 15:53:33.273,5.376643657684326,1,0.216400649181637,0.391401609542183,0,0,0,0,0,0,63.6,-0.192,32.3,0.0,8.49,0.677,0,118.14,mixed,95.0,,,
2025-11-16 15:53:34.273,5.391672611236572,1,0.216400649181637,0.391401609542183,0,0,0,0,0,0,62.71,-0.886,0,57.3,1.44,0.56,0,108.09,mixed,95.0,,,
2025-11-16 15:53:35.273,5.407503604888916,1,0.271924179705801,0.3807841736790292,0,0,0,0,0,0,63.38,0.665,49.7,2.3,5.8,0.663,0,123.26,mixed,95.0,,,
2025-11-16 15:53:36.273,5.424831867218018,1,0.271924179705801,0.3807841736790292,0,0,0,0,0,0,64.92,1.544,54.1,4.4,12.8,0.622,0,125.19,mixed,95.0,,,
2025-11-16 15:53:37.273,5.44176983833313,1,0.271924179705801,0.3807841736790292,0,0,0,0,0,0,67.41,2.488,26.2,8.6,28.67,0.503,0,117.82,mixed,95.0,,,
